City #,City,Country,Date,Latitude,Longitude,Max Temperature,Cloudiness,Humidity,Wind Speed
0,Esperance,AU,1580085724,-33.87,121.9,71.6,0,94,6.93
1,Acajutla,SV,1580085743,13.59,-89.83,81.21,13,74,10.09
2,Hobart,AU,1580086009,-42.88,147.33,63.0,75,48,10.29
3,Butaritari,KI,1580086070,3.07,172.79,82.56,100,79,11.83
4,Avarua,CK,1580086071,-21.21,-159.78,77.0,98,94,4.7
5,Puerto Ayora,EC,1580086071,-0.74,-90.35,80.6,75,69,8.05
6,Cape Town,ZA,1580085702,-33.93,18.42,62.01,40,87,6.93
7,Los Llanos de Aridane,ES,1580086072,28.66,-17.92,62.6,40,67,6.93
8,Saint-Philippe,RE,1580085732,-21.36,55.77,73.4,75,78,6.93
9,Dongsheng,CN,1580085706,39.82,109.98,19.72,100,95,1.25
10,Mataura,NZ,1580086074,-46.19,168.86,68.0,79,63,11.01
11,Kapaa,US,1580085620,22.08,-159.32,80.6,90,74,9.17
12,Busselton,AU,1580086075,-33.65,115.33,78.01,0,42,1.99
13,Bambous Virieux,MU,1580085755,-20.34,57.76,77.0,40,78,10.29
14,Aguas Formosas,BR,1580086076,-17.08,-40.94,69.75,99,93,3.56
15,Lebu,CL,1580085692,-37.62,-73.65,58.95,3,66,10.27
16,Zatreni,RO,1580086078,44.77,23.85,39.99,99,80,8.05
17,Katsuura,JP,1580085704,35.13,140.3,44.01,75,60,9.17
18,Manokwari,ID,1580086079,-0.87,134.08,79.34,100,68,2.8
19,Upernavik,GL,1580085694,72.79,-56.15,-16.28,99,96,3.85
20,Ushuaia,AR,1580085692,-54.8,-68.3,48.2,40,70,17.22
21,Piracuruca,BR,1580086082,-3.93,-41.71,76.3,94,94,2.68
22,Kaitangata,NZ,1580085688,-46.28,169.85,68.0,92,67,8.77
23,Isangel,VU,1580085745,-19.55,169.27,87.8,75,66,9.17
24,Clyde River,CA,1580085738,70.47,-68.59,-22.0,1,67,8.05
25,Roald,NO,1580085434,62.58,6.13,48.0,100,65,10.29
26,Dikson,RU,1580085719,73.51,80.55,-7.44,99,98,3.06
27,Broome,US,1580085746,42.25,-75.83,37.0,90,89,9.17
28,Tiksi,RU,1580085688,71.69,128.87,-32.44,0,69,2.77
29,Castro,BR,1580085714,-24.79,-50.01,66.34,1,79,3.62
30,Nikolskoye,RU,1580085789,59.7,30.79,28.4,75,79,8.95
31,New Norfolk,AU,1580086088,-42.78,147.06,63.0,75,48,10.29
32,Priiskovyy,RU,1580086089,51.93,116.63,-10.46,7,95,2.08
33,Tasiilaq,GL,1580086090,65.61,-37.64,32.0,100,48,9.17
34,Progreso,MX,1580086091,21.28,-89.67,84.2,40,45,4.7
35,Garissa,KE,1580086091,-0.45,39.64,78.19,100,83,9.1
36,Suleja,NG,1580086092,9.18,7.18,66.2,11,48,5.82
37,Olafsvik,IS,1580086092,64.89,-23.71,33.17,100,89,15.84
38,Singaraja,ID,1580086093,-8.11,115.09,83.37,3,73,3.67
39,Praia,CV,1580086094,14.92,-23.51,73.4,0,56,17.22
40,Yurga,RU,1580086094,55.72,84.89,8.2,59,82,17.2
41,Bredasdorp,ZA,1580085687,-34.53,20.04,55.4,37,76,4.7
42,Rikitea,PF,1580086095,-23.12,-134.97,79.34,0,78,11.39
43,Bethel,US,1580085757,41.37,-73.41,43.0,90,64,5.82
44,Carnarvon,AU,1580085693,-24.87,113.63,78.8,0,88,13.87
45,Atuona,PF,1580085694,-9.8,-139.03,81.14,3,71,11.27
46,Bluff,NZ,1580085694,-46.6,168.33,68.0,90,63,11.01
47,Yarensk,RU,1580086099,62.17,49.09,-10.23,82,98,2.21
48,Constitucion,CL,1580085735,-35.33,-72.42,61.9,59,76,9.48
49,Bengkulu,ID,1580085451,-3.8,102.27,74.95,85,86,2.77
50,Zaysan,KZ,1580086101,47.47,84.87,12.83,24,80,1.88
51,Straengnaes,SE,1580086101,59.38,17.03,43.0,100,93,6.93
52,Kedrovyy,RU,1580086102,56.17,91.82,1.4,81,77,2.24
53,Beringovskiy,RU,1580086102,63.05,179.32,15.84,100,89,1.68
54,Kapchorwa,UG,1580086103,1.4,34.45,69.44,100,69,6.35
55,The Valley,AI,1580086104,18.22,-63.06,78.01,40,83,3.36
56,Lompoc,US,1580085789,34.64,-120.46,64.99,90,87,16.11
57,Chui,UY,1580085752,-33.7,-53.46,75.25,66,77,7.47
58,Craig,US,1580086106,40.52,-107.55,37.4,90,87,3.62
59,Albany,US,1580085691,42.6,-73.97,39.99,90,64,4.7
60,Antalaha,MG,1580085748,-14.9,50.28,79.12,77,75,18.86
61,Sinop,TR,1580085964,41.77,34.87,44.42,0,58,5.46
62,Nokaneng,BW,1580086108,-19.67,22.27,74.97,68,55,6.93
63,Kruisfontein,ZA,1580085715,-34.0,24.73,55.56,38,85,10.16
64,Tsovagyugh,AM,1580086110,40.63,44.96,13.05,0,63,7.07
65,Lenoir,US,1580086110,35.23,-77.65,44.01,1,86,5.01
66,Lorengau,PG,1580086111,-2.02,147.27,84.06,88,77,11.74
67,Ust'-Uda,RU,1580086112,54.17,103.03,5.2,62,93,2.08
68,Grand Gaube,MU,1580086113,-20.01,57.66,77.0,40,78,10.29
69,Boddam,GB,1580086113,57.47,-1.78,33.8,80,86,6.93
70,Kinshasa,CD,1580085845,-4.32,15.32,77.0,39,94,1.63
71,Sola,VU,1580085768,-13.88,167.55,84.2,90,83,14.45
72,Punta Arenas,CL,1580085688,-53.15,-70.92,53.6,90,58,11.41
73,De Aar,ZA,1580086116,-30.65,24.01,54.43,0,55,17.78
74,Beeville,US,1580086117,28.4,-97.75,79.0,0,73,4.0
75,Hong Kong,HK,1580085601,22.29,114.16,54.0,40,66,16.11
76,Bairiki Village,KI,1580085801,1.33,172.98,84.52,65,71,5.5
77,Vestmannaeyjar,IS,1580085773,63.44,-20.27,38.44,100,71,26.4
78,Quryq,KZ,1580086120,43.2,51.65,40.46,64,69,21.79
79,Hilo,US,1580086120,19.73,-155.09,80.6,40,61,9.17
80,Fortuna,US,1580085740,40.6,-124.16,57.0,90,66,10.29
81,Nabire,ID,1580085751,-3.37,135.48,85.24,75,70,0.63
82,Port Hedland,AU,1580086122,-20.32,118.57,89.6,0,75,4.7
83,Aksarka,RU,1580085507,66.56,67.8,-13.49,95,99,4.99
84,Petropavl,KZ,1580086124,54.88,69.16,24.91,100,92,15.37
85,San Ignacio Rio Muerto,MX,1580086124,27.42,-110.23,77.0,5,38,8.05
86,Gawler,AU,1580086125,-34.6,138.73,77.0,20,64,10.29
87,Qaanaaq,GL,1580086126,77.48,-69.36,-10.34,11,53,4.43
88,Longyearbyen,SJ,1580085756,78.22,15.64,1.4,0,77,3.36
89,Diffa,NE,1580086127,13.32,12.61,61.61,0,21,11.12
90,Prosvet,RU,1580086127,55.57,65.08,5.27,66,95,8.23
91,Cayenne,GF,1580085715,4.93,-52.33,75.2,75,94,4.7
92,Severo-Kuril'sk,RU,1580085727,50.68,156.12,21.02,100,90,10.25
93,Sulina,RO,1580086130,45.16,29.65,37.56,0,84,2.95
94,Harvard,US,1580086130,42.42,-88.61,30.2,90,92,8.5
95,Barrow,US,1580085723,71.29,-156.79,-23.8,1,74,9.17
96,Rabat,MA,1580086102,33.99,-6.84,51.01,0,100,6.93
97,Hermanus,ZA,1580085719,-34.42,19.23,60.01,64,94,9.44
98,Chokurdakh,RU,1580085767,70.63,147.92,-23.62,100,97,4.56
99,Porosozero,RU,1580086134,62.72,32.73,10.62,0,91,6.13
100,Chapais,CA,1580085765,49.78,-74.85,27.09,99,97,5.61
101,Jamestown,US,1580085691,42.1,-79.24,34.0,90,100,12.75
102,Saskylakh,RU,1580085740,71.92,114.08,-20.96,98,97,7.74
103,Luau,AO,1580086137,-10.71,22.22,67.55,100,93,2.42
104,Buarcos,PT,1580086138,40.17,-8.88,53.01,64,87,6.93
105,Broken Hill,AU,1580085779,-31.95,141.43,84.2,0,26,12.75
106,College,US,1580085614,64.86,-147.8,-11.2,90,68,3.51
107,Narsaq,GL,1580085708,60.92,-46.05,10.4,100,72,2.24
108,Oktyabrskoye,RU,1580086140,43.06,44.74,25.66,23,75,2.21
109,Sillod,IN,1580086141,20.3,75.65,60.8,0,72,6.42
110,Talnakh,RU,1580085738,69.49,88.4,-0.4,100,77,11.18
111,Amiens,FR,1580086142,49.9,2.3,48.2,100,93,19.46
112,Laas,IT,1580085749,46.62,10.7,33.01,5,92,6.93
113,Chai Badan,TH,1580086143,15.2,101.13,77.0,100,83,1.77
114,Yellowknife,CA,1580085627,62.46,-114.35,5.0,75,84,8.05
115,Shingu,JP,1580085748,33.73,135.98,48.2,75,87,5.82
116,Geraldton,AU,1580086146,-28.77,114.6,77.0,32,73,5.82
117,Kantang,TH,1580086147,7.41,99.52,71.6,20,100,2.44
118,Salalah,OM,1580086147,17.02,54.09,66.2,1,17,16.11
119,Puerto Quijarro,BO,1580086148,-17.78,-57.77,82.54,56,59,4.81
120,Agadir,MA,1580085852,30.42,-9.6,51.8,0,93,5.82
121,Pascagoula,US,1580086149,30.37,-88.56,53.01,90,100,4.7
122,Gravdal,NO,1580086150,68.12,13.5,27.19,100,72,26.91
123,Pevek,RU,1580085694,69.7,170.31,-3.21,100,92,3.27
124,Erdenet,MN,1580086151,49.03,104.08,4.5,84,68,5.3
125,Brae,GB,1580085774,60.4,-1.35,41.0,100,58,12.75
126,Aklavik,CA,1580086152,68.22,-135.01,-20.2,90,75,6.93
127,Naze,JP,1580085771,28.37,129.48,71.6,75,100,4.7
128,Challapata,BO,1580086153,-18.9,-66.77,57.02,28,58,10.76
129,Burnie,AU,1580086154,-41.07,145.92,64.0,100,77,4.0
130,Tigre,AR,1580086154,-34.43,-58.58,87.01,0,35,4.7
131,Varkala,IN,1580086155,8.73,76.71,75.2,20,100,2.24
132,Port Elizabeth,ZA,1580085711,-33.92,25.57,60.8,27,77,17.22
133,Port Alfred,ZA,1580085726,-33.59,26.89,62.01,15,79,5.99
134,Angoche,MZ,1580086157,-16.23,39.91,74.25,6,93,2.68
135,Soyo,AO,1580085715,-6.13,12.37,81.05,98,79,5.64
136,Jalingo,NG,1580086158,8.88,11.37,70.74,0,12,6.15
137,Tomatlan,MX,1580086159,19.93,-105.25,74.62,0,69,7.0
138,Morant Bay,JM,1580086160,17.88,-76.41,78.8,20,69,4.7
139,Darhan,MN,1580086160,49.49,105.92,-1.21,19,82,2.19
140,Sanchor,IN,1580086161,24.76,71.77,61.81,0,55,6.22
141,Nagato,JP,1580086162,34.38,131.2,46.4,75,93,19.46
142,Genhe,CN,1580086162,50.78,121.52,-6.48,90,100,1.57
143,Provideniya,RU,1580085692,64.38,-173.3,-5.8,7,76,4.47
144,Novoorsk,RU,1580086163,51.38,58.98,19.4,17,79,17.9
145,Arraial do Cabo,BR,1580085612,-22.97,-42.03,75.7,0,80,10.11
146,Punto Fijo,VE,1580086165,11.7,-70.2,78.76,0,80,15.26
147,Salinopolis,BR,1580085713,-0.61,-47.36,83.03,100,78,11.88
148,Faanui,PF,1580085694,-16.48,-151.75,83.41,90,72,9.93
149,Comodoro Rivadavia,AR,1580086166,-45.87,-67.5,68.0,0,45,2.24
150,Mahibadhoo,MV,1580085707,3.78,72.97,80.47,100,77,7.2
151,Kahului,US,1580085717,20.89,-156.47,84.2,20,48,14.99
152,Luderitz,NA,1580085703,-26.65,15.16,66.2,18,55,17.22
153,Sheregesh,RU,1580086169,52.92,87.99,4.39,62,83,3.8
154,Luganville,VU,1580086169,-15.53,167.17,86.0,75,66,8.05
155,Altay,CN,1580086170,47.87,88.12,11.68,100,94,2.57
156,Panama,PA,1580085970,8.99,-79.52,82.4,20,69,10.29
157,Okoneshnikovo,RU,1580086172,54.84,75.08,25.07,100,93,23.53
158,Znamenskoye,RU,1580086173,57.13,73.83,22.28,100,92,14.0
159,Kastornoye,RU,1580086173,51.83,38.13,32.05,100,85,16.33
160,Maralal,KE,1580086174,1.1,36.7,66.76,100,75,8.75
161,Arrondissement de Poitiers,FR,1580086175,46.58,0.33,48.2,75,93,17.22
162,Nome,US,1580086175,64.5,-165.41,-5.8,1,58,9.17
163,Tianpeng,CN,1580086176,30.99,103.94,43.0,75,81,6.71
164,Karratha,AU,1580086176,-20.74,116.85,87.6,0,64,5.37
165,Noyabrsk,RU,1580086177,63.2,75.45,-5.44,94,100,11.72
166,Hithadhoo,MV,1580085748,-0.6,73.08,81.0,100,79,5.73
167,Hervey Bay,AU,1580085788,-25.3,152.85,87.01,90,78,9.17
168,Hambantota,LK,1580086179,6.12,81.12,76.84,92,74,16.67
169,Alofi,NU,1580085482,-19.06,-169.92,84.2,50,83,8.05
170,Iquique,CL,1580086181,-20.22,-70.14,77.0,20,73,13.87
171,Sitka,US,1580085724,57.05,-135.33,44.6,90,75,12.75
172,Krasnoyarsk,RU,1580086182,56.01,92.79,1.4,65,77,2.24
173,Ricardo Palma,PE,1580086182,-11.92,-76.67,73.4,75,88,20.8
174,Kiunga,PG,1580086183,-6.12,141.29,85.05,98,71,1.05
175,Tuktoyaktuk,CA,1580085722,69.45,-133.04,-19.8,96,95,5.7
176,Piacabucu,BR,1580086184,-10.41,-36.43,80.6,88,84,9.69
177,Kuytun,RU,1580086185,54.34,101.5,15.53,100,95,2.86
178,Eggenfelden,DE,1580086185,48.41,12.76,36.0,97,96,2.48
179,Surgut,RU,1580086102,61.25,73.42,-4.0,90,83,8.95
180,Trelew,AR,1580086187,-43.25,-65.31,56.23,0,40,11.95
181,Sobolevo,RU,1580086187,54.43,31.9,33.53,98,90,12.08
182,Korla,CN,1580085788,41.76,86.15,14.0,30,51,1.97
183,Freeport,US,1580086188,40.66,-73.58,44.6,1,56,9.17
184,East London,ZA,1580085703,-33.02,27.91,65.28,24,66,22.59
185,Ostrovnoy,RU,1580085785,68.05,39.51,15.67,89,85,10.76
186,Tigil,RU,1580086191,57.8,158.67,23.9,83,76,11.18
187,Vaini,TO,1580086191,-21.2,-175.2,86.0,40,79,6.93
188,Biak,ID,1580085779,-0.91,122.88,81.46,45,80,2.73
189,Norman Wells,CA,1580085706,65.28,-126.83,-19.53,86,93,3.94
190,Sahuaripa,MX,1580086194,29.05,-109.23,64.2,0,48,5.19
191,Mount Isa,AU,1580086194,-20.73,139.5,80.6,90,83,10.29
192,Chara,RU,1580086195,56.91,118.26,-0.67,21,78,1.07
193,Marawi,PH,1580085772,8.0,124.29,82.0,92,78,4.0
194,San Juan de los Morros,VE,1580086197,9.91,-67.35,73.58,98,74,2.51
195,George Town,MY,1580085724,5.41,100.34,77.0,20,100,3.36
196,Bac Giang,VN,1580086198,21.27,106.2,55.4,84,66,9.17
197,Sovetskiy,RU,1580086199,61.36,63.58,-1.46,100,96,6.33
198,Poum,NC,1580086199,-20.23,164.02,79.75,0,80,23.31
199,Skibbereen,IE,1580086200,51.55,-9.27,39.2,40,80,14.99
200,Mar del Plata,AR,1580085710,-38.0,-57.56,64.4,40,68,20.8
201,Pisco,PE,1580085750,-13.7,-76.22,72.0,75,88,23.04
202,Prykolotne,UA,1580086202,50.16,37.35,30.56,53,88,13.6
203,Grindavik,IS,1580085729,63.84,-22.43,33.8,40,63,14.99
204,Itarema,BR,1580085734,-2.92,-39.92,77.77,100,91,3.24
205,Asau,RO,1580085719,46.43,26.4,30.99,29,80,4.7
206,Kodiak,US,1580085704,57.79,-152.41,17.6,90,61,9.17
207,Namatanai,PG,1580086206,-3.67,152.43,84.42,44,73,8.25
208,Rio Cuarto,AR,1580086206,-33.13,-64.35,75.2,75,57,5.82
209,Dauphin,CA,1580086207,51.15,-100.05,17.6,90,85,9.17
210,Torbay,CA,1580085750,47.67,-52.73,28.0,90,75,3.0
211,Pratapgarh,IN,1580086208,24.03,74.78,58.42,7,48,6.8
212,Sydney,AU,1580086022,-33.87,151.21,87.01,75,83,17.22
213,Vila Velha,BR,1580085662,-20.33,-40.29,75.2,40,88,0.78
214,Grand-Lahou,CI,1580086211,5.14,-5.02,81.81,23,82,10.63
215,Boguchany,RU,1580086211,58.38,97.45,8.47,96,94,5.1
216,La Paz,BO,1580086104,-16.5,-68.15,55.4,40,50,9.17
217,Ballina,AU,1580085770,-28.87,153.57,84.2,88,69,16.11
218,Strezhevoy,RU,1580085401,60.73,77.59,6.8,90,84,13.42
219,Qandala,SO,1580086214,11.47,49.87,73.99,2,72,2.08
220,Jerome,US,1580086214,42.72,-114.52,42.8,90,93,4.7
221,Tazovsky,RU,1580086215,67.47,78.7,-2.81,84,97,6.67
222,Bonabeerie,CM,1580086216,4.08,9.68,78.8,40,83,1.12
223,Buraidah,SA,1580086216,26.33,43.98,37.4,0,93,2.24
224,Dubovskoye,RU,1580086217,47.41,42.76,30.0,30,87,8.93
225,Onguday,RU,1580086217,50.75,86.15,1.22,55,92,8.25
226,Moose Factory,CA,1580086218,51.26,-80.61,21.2,90,92,13.87
227,Granadilla de Abona,ES,1580086219,28.12,-16.58,61.0,20,63,9.17
228,Asmara,ER,1580086219,15.33,38.93,53.71,72,82,4.76
229,Conakry,GN,1580086220,9.54,-13.68,82.4,58,74,4.27
230,Laguna,US,1580085756,38.42,-121.42,66.2,75,55,4.7
231,La Asuncion,VE,1580086221,11.03,-63.86,80.6,82,74,10.29
232,Hastings,GB,1580086222,50.86,0.57,50.0,95,100,14.99
233,Gurkovo,BG,1580086223,42.67,25.8,39.2,80,78,3.36
234,Kosh-Agach,RU,1580086224,50.0,88.67,-6.54,29,88,1.03
235,Bunia,CD,1580086224,1.57,30.25,75.97,85,39,4.38
236,Khash,IR,1580086225,28.22,61.22,40.1,49,70,11.59
237,Bathsheba,BB,1580085766,13.22,-59.52,78.8,75,78,6.93
238,Guerrero Negro,MX,1580085732,27.98,-114.06,63.9,1,73,13.67
239,Paamiut,GL,1580086227,61.99,-49.67,17.6,96,66,21.05
240,Kassala,SD,1580086227,15.45,36.4,52.81,0,85,7.85
241,Road Town,VG,1580085800,18.42,-64.62,78.8,40,88,4.7
242,Ahipara,NZ,1580085770,-35.17,173.17,90.0,1,63,6.06
243,Stornoway,GB,1580085751,58.21,-6.39,42.01,21,75,31.09
244,Port Lincoln,AU,1580085735,-34.73,135.87,65.84,91,69,8.93
245,Khor,RU,1580086231,47.89,134.95,-1.03,9,93,6.93
246,Ashland,US,1580086232,40.82,-82.27,34.0,90,97,5.82
247,Trincomalee,LK,1580086232,8.57,81.23,67.05,85,89,1.34
248,Vardo,NO,1580085691,70.37,31.11,10.4,100,78,20.8
249,Hasaki,JP,1580085545,35.73,140.83,41.0,75,61,5.82
250,Popondetta,PG,1580085774,-8.75,148.25,85.41,100,65,2.48
251,Mayumba,GA,1580086235,-3.43,10.66,82.71,100,75,4.9
252,Saint George,US,1580085726,37.1,-113.58,57.99,90,37,10.29
253,Margate,GB,1580085789,51.38,1.39,48.0,20,93,9.17
254,Dingle,PH,1580085758,11.0,122.67,77.97,10,84,4.03
255,Thomasville,US,1580086237,35.88,-80.08,44.6,75,56,4.88
256,San Patricio,MX,1580085774,19.22,-104.7,82.4,40,78,8.05
257,Ikwiriri,TZ,1580086238,-7.96,38.97,74.17,96,97,1.41
258,Katiola,CI,1580086239,8.13,-5.1,82.4,52,24,4.7
259,Mahebourg,MU,1580085688,-20.41,57.7,77.0,40,78,10.29
260,Kautokeino,NO,1580086240,69.01,23.04,-7.1,97,97,1.99
261,Raymond,US,1580086241,43.9,-70.47,37.99,1,80,9.91
262,Srednekolymsk,RU,1580085773,67.45,153.68,-28.8,100,95,3.96
263,Ribeira Grande,PT,1580086242,38.52,-28.7,59.2,94,89,16.71
264,Ugoofaaru,MV,1580085739,5.67,73.0,80.71,100,75,7.09
265,Saldanha,ZA,1580085720,-33.01,17.94,57.2,11,82,8.05
266,Hirara,JP,1580085545,24.8,125.28,68.0,75,77,19.46
267,Ponta do Sol,PT,1580085692,32.67,-17.1,59.0,20,72,1.12
268,La Ronge,CA,1580085711,55.1,-105.28,26.82,100,96,3.65
269,Sambava,MG,1580086246,-14.27,50.17,69.66,88,97,2.21
270,Thunder Bay,CA,1580086187,48.4,-89.32,28.4,90,79,6.93
271,Lata,PT,1580085798,40.16,-8.33,53.01,51,87,6.93
272,Meulaboh,ID,1580086248,4.14,96.13,81.41,100,83,5.99
273,Cooma,AU,1580086248,-36.23,149.13,82.4,0,26,11.41
274,Caibarien,CU,1580086250,22.52,-79.47,71.6,20,78,4.7
275,Sorong,ID,1580085799,-0.88,131.25,81.82,100,79,0.47
276,Ancud,CL,1580085796,-41.87,-73.82,60.8,90,67,6.93
277,Ust'-Barguzin,RU,1580085717,53.45,108.98,4.93,45,81,2.08
278,Atar,MR,1580085749,20.52,-13.05,67.3,45,25,10.2
279,Laela,TZ,1580086252,-8.57,32.05,60.71,100,93,2.77
280,Portland,US,1580085696,45.52,-122.68,54.0,90,62,14.99
281,Haren,DE,1580086254,52.78,7.23,45.0,69,81,9.17
282,Sao Filipe,CV,1580085691,14.9,-24.5,73.71,0,67,10.74
283,Hamilton,US,1580086049,39.18,-84.53,37.99,1,86,1.59
284,Kiama,AU,1580085507,-34.68,150.87,84.99,90,73,4.7
285,Faya,SA,1580086257,18.39,42.45,44.6,0,41,4.7
286,Khatanga,RU,1580085693,71.97,102.5,-23.48,91,99,1.68
287,Tuatapere,NZ,1580085725,-46.13,167.68,68.0,56,63,11.01
288,Wanaka,NZ,1580086204,-44.7,169.15,67.32,84,51,9.75
289,Nova Venecia,BR,1580086259,-18.71,-40.4,73.4,100,99,1.77
290,Coquimbo,CL,1580085713,-29.95,-71.34,77.0,40,88,9.17
291,Pinyug,RU,1580086260,60.25,47.78,2.41,99,97,2.53
292,Kloulklubed,PW,1580086261,7.04,134.26,82.4,75,78,6.93
293,Bogovarovo,RU,1580086261,58.98,47.02,7.81,100,96,3.58
294,Quatre Cocos,MU,1580085798,-20.21,57.76,77.0,40,78,10.29
295,Mezen,RU,1580086263,65.85,44.24,-5.42,90,97,7.99
296,Kungurtug,RU,1580086264,50.6,97.52,10.44,100,77,2.24
297,Camacupa,AO,1580086265,-12.02,17.48,63.9,100,97,2.84
298,Ciudad Lazaro Cardenas,MX,1580086266,17.96,-102.2,78.31,56,66,5.37
299,Lagoa,PT,1580085749,39.05,-27.98,62.11,98,84,12.95
300,Eureka,US,1580086267,40.8,-124.16,57.0,90,66,10.29
301,Virginia Beach,US,1580086145,36.85,-75.98,45.0,1,67,12.46
302,Opuwo,NA,1580085723,-18.06,13.84,76.42,98,55,5.01
303,Nachingwea,TZ,1580086269,-10.38,38.77,70.61,91,95,2.53
304,Hongjiang,CN,1580086269,27.11,110.0,32.72,19,90,2.24
305,Havelock,US,1580086270,34.88,-76.9,46.4,1,70,4.7
306,Villarrica,PY,1580086270,-25.75,-56.43,80.71,0,41,4.85
307,Lusambo,CD,1580086271,-4.97,23.45,73.69,100,87,1.9
308,Berlevag,NO,1580086272,70.86,29.09,22.06,100,65,14.76
309,Nanortalik,GL,1580085718,60.14,-45.24,23.04,99,73,18.59
310,Teguldet,RU,1580086273,57.31,88.17,6.84,98,90,9.42
311,Siderno,IT,1580086273,38.28,16.3,57.99,75,87,5.82
312,Kalemie,CD,1580086274,-5.95,29.19,65.55,100,80,2.42
313,Timmins,CA,1580086085,48.47,-81.33,23.0,90,92,9.17
314,Sabana Grande de Boya,DO,1580086275,18.95,-69.79,77.0,75,83,10.29
315,Richards Bay,ZA,1580085764,-28.78,32.04,75.58,93,84,42.19
316,Russell,US,1580085739,32.35,-85.2,51.8,90,66,1.88
317,Bereda,ES,1580085748,43.27,-7.54,54.0,40,87,13.87
318,Thompson,CA,1580085713,55.74,-97.86,-0.09,79,96,2.26
319,Ilheus,BR,1580086261,-14.79,-39.05,82.4,75,83,4.7
320,Turukhansk,RU,1580085709,65.82,87.98,2.26,99,94,7.58
321,Coahuayana Viejo,MX,1580086280,18.73,-103.68,73.4,40,73,11.41
322,Skrunda,LV,1580086280,56.68,22.02,41.0,100,100,6.93
323,Kutum,SD,1580086281,14.2,24.67,45.5,0,26,5.14
324,Yerbogachen,RU,1580085478,61.28,108.01,5.76,94,89,13.02
325,Mnogovershinnyy,RU,1580086283,53.94,139.92,-8.46,0,84,6.8
326,Caravelas,BR,1580085774,-17.71,-39.25,79.9,93,85,13.24
327,San Onofre,CO,1580086284,9.74,-75.53,78.57,25,82,11.95
328,Bose,IT,1580086285,45.46,8.01,39.99,85,80,4.7
329,Dalby,AU,1580086285,-27.18,151.27,84.99,40,61,12.75
330,Samfya,ZM,1580086286,-11.36,29.56,63.27,100,98,3.91
331,Shenjiamen,CN,1580085731,29.96,122.3,49.55,100,87,31.65
332,Angermuende,DE,1580086287,53.02,14.0,35.01,100,94,5.73
333,Aswan,EG,1580086288,24.09,32.91,49.03,0,65,8.55
334,Szekkutas,HU,1580086288,46.5,20.53,32.0,20,80,3.36
335,Huilong,CN,1580086289,31.81,121.66,44.01,100,90,15.1
336,Yarmouth,US,1580086090,41.71,-70.23,41.0,1,64,4.7
337,Zliten,LY,1580086290,32.47,14.57,60.26,93,74,12.8
338,Lady Lake,US,1580086291,28.92,-81.92,62.01,90,67,3.94
339,Mitsamiouli,KM,1580086291,-11.38,43.28,81.16,98,74,3.04
340,Boa Vista,BR,1580085758,2.82,-60.67,87.8,81,55,4.7
341,Tadine,NC,1580086292,-21.55,167.88,82.85,84,67,11.74
342,Felanitx,ES,1580086293,39.47,3.15,53.01,20,100,3.36
343,Pedasi,PA,1580086294,7.53,-80.03,80.98,88,76,11.61
344,Kulhudhuffushi,MV,1580086294,6.62,73.07,81.95,100,67,4.23
345,Whitehorse,CA,1580085601,60.72,-135.05,1.0,40,77,5.23
346,Chincholi,IN,1580086295,17.47,77.43,67.35,0,60,5.19
347,Tromso,NO,1580086296,69.65,18.96,10.99,92,84,2.24
348,El Cope,PA,1580086297,8.62,-80.6,73.99,79,39,10.07
349,Caronport,CA,1580086298,50.45,-105.82,21.99,78,94,1.97
350,Amapa,BR,1580085709,1.0,-52.0,73.72,100,99,2.95
351,Marsh Harbour,BS,1580086299,26.54,-77.06,70.43,51,51,7.29
352,Portobelo,PA,1580086300,9.55,-79.65,82.4,89,61,8.05
353,Bosaso,SO,1580085793,11.28,49.18,77.59,1,75,10.98
354,Cabo San Lucas,MX,1580085465,22.89,-109.91,72.0,40,68,6.93
355,Wajid,SO,1580086301,3.81,43.25,76.62,3,72,16.08
356,Cedar City,US,1580086276,37.68,-113.06,51.8,75,34,16.11
357,Price,US,1580086303,39.6,-110.81,43.0,1,98,3.18
358,Pacific Grove,US,1580085760,36.62,-121.92,63.0,1,77,15.35
359,Ilulissat,GL,1580085730,69.22,-51.1,3.2,72,65,2.24
360,Esil,KZ,1580086306,51.96,66.4,26.78,100,96,12.88
361,Bulayevo,KZ,1580085772,54.91,70.44,27.43,99,94,16.91
362,Launceston,AU,1580086307,-41.45,147.17,60.01,75,67,12.75
363,Borogontsy,RU,1580086308,62.67,131.17,-28.25,100,92,9.46
364,Dukat,RU,1580086308,62.55,155.55,-13.97,100,99,2.55
365,Bandrele,YT,1580086309,-12.91,45.19,78.8,100,100,3.36
366,Pierre,US,1580086310,44.37,-100.35,35.01,90,80,12.75
367,Pangnirtung,CA,1580085474,66.15,-65.71,-38.25,100,98,1.32
368,Arrondissement de Saint-Jean-de-Maurienne,FR,1580086311,45.17,6.58,42.01,76,88,5.08
369,Mogadouro,PT,1580086311,41.34,-6.71,40.24,77,94,6.71
370,Rawson,AR,1580086272,-43.3,-65.1,60.31,0,56,9.86
371,Zwedru,LR,1580086313,6.07,-8.13,74.25,86,95,2.1
372,Nanakuli,US,1580086314,21.39,-158.15,84.2,40,65,10.29
373,Cherskiy,RU,1580086314,68.75,161.3,-22.5,100,87,0.63
374,Oranjemund,NA,1580086316,-28.55,16.43,60.53,21,63,14.5
375,Sinnamary,GF,1580086317,5.38,-52.95,77.97,100,88,17.36
376,Sajanan,TN,1580086317,37.06,9.24,53.6,40,100,5.82
377,Port-Gentil,GA,1580086318,-0.72,8.78,82.85,39,81,11.79
378,Necochea,AR,1580086278,-38.55,-58.74,61.0,48,60,11.01
379,Mezhdurechensk,RU,1580086320,53.69,88.06,6.33,84,83,3.29
380,Kavieng,PG,1580085762,-2.57,150.8,83.73,16,73,6.08
381,Zhuhai,CN,1580086321,22.28,113.57,54.0,40,76,23.04
382,Jadu,LY,1580086322,31.95,12.03,54.81,91,68,3.8
383,Deputatsky,RU,1580085749,69.3,139.9,-30.95,84,83,2.82
384,Tukrah,LY,1580086323,32.53,20.58,54.16,83,49,8.7
385,Huarmey,PE,1580086323,-10.07,-78.15,72.64,72,72,4.76
386,Souillac,MU,1580086324,-20.52,57.52,77.0,40,78,10.29
387,Lubumbashi,CD,1580086325,-11.66,27.48,62.15,100,98,4.5
388,Lubango,AO,1580086325,-14.92,13.49,62.13,93,80,1.83
389,Senno,RU,1580086326,59.53,33.92,14.0,81,89,4.12
390,Aquiraz,BR,1580086326,-3.9,-38.39,86.0,20,83,3.36
391,Wanning,CN,1580085760,18.8,110.4,60.91,100,86,6.76
392,Boden,SE,1580086328,65.83,21.69,6.8,100,84,3.36
393,Taksimo,RU,1580085751,56.34,114.88,-5.89,99,98,1.1
394,Oia,PT,1580086330,40.54,-8.54,57.0,69,85,1.99
395,Okhotsk,RU,1580086413,59.38,143.3,-12.39,82,74,9.4
396,Byron Bay,AU,1580086414,-28.65,153.62,87.01,97,61,10.29
397,Along,IN,1580086414,28.17,94.77,40.26,0,64,4.27
398,Nuuk,GL,1580086415,64.18,-51.72,14.0,99,61,6.93
399,Teknaf,BD,1580086415,20.86,92.31,49.51,6,68,2.08
400,Teahupoo,PF,1580086416,-17.83,-149.27,89.6,20,66,10.29
401,Astara,AZ,1580086417,38.5,48.67,22.87,68,57,1.36
402,Jojoima,SL,1580086417,7.88,-10.79,68.86,54,91,1.25
403,Goderich,CA,1580086337,43.75,-81.72,34.0,100,89,1.99
404,Chimbote,PE,1580086407,-9.09,-78.58,73.94,57,73,8.48
405,Zhigansk,RU,1580086419,66.77,123.37,-29.47,0,63,4.38
406,Vanimo,PG,1580086419,-2.67,141.3,82.85,100,79,15.5
407,Krasnosel'kup,RU,1580086420,65.7,82.47,0.25,100,96,8.77
408,Thanatpin,MM,1580086421,17.21,96.3,64.4,77,88,5.82
409,Calbuco,CL,1580086128,-41.77,-73.13,62.6,0,59,9.17
410,Cidreira,BR,1580086422,-30.18,-50.21,77.38,10,82,13.89
411,Egvekinot,RU,1580086422,66.32,-179.17,-3.68,100,69,1.57
412,Bandarbeyla,SO,1580086423,9.49,50.81,79.02,34,78,24.52
413,Port Hardy,CA,1580086424,50.7,-127.42,42.8,90,93,5.82
414,Rio Gallegos,AR,1580086424,-51.62,-69.22,57.2,69,41,13.87
415,Coyhaique,CL,1580086425,-45.58,-72.07,60.8,17,44,9.17
416,Rypefjord,NO,1580086425,70.63,23.67,10.4,40,92,6.93
417,Caningay,PH,1580086426,9.83,122.64,80.78,90,77,5.03
418,Chitipa,MW,1580086427,-9.7,33.27,63.59,100,96,3.33
419,Oranjestad,AW,1580086427,12.52,-70.03,80.6,20,83,8.05
420,Gweru,ZW,1580086428,-19.45,29.82,65.68,0,60,4.99
421,Flinders,AU,1580086428,-34.58,150.86,81.0,90,73,5.82
422,Kyabe,TD,1580086429,9.45,18.94,66.6,57,13,5.75
423,Mumbwa,ZM,1580086430,-14.98,27.06,63.88,1,85,4.21
424,Banjar,ID,1580086430,-8.19,114.97,84.2,20,83,3.36
425,Santa Maria,BR,1580086159,-29.68,-53.81,80.6,66,74,2.24
426,Lillooet,CA,1580086432,50.69,-121.94,46.4,1,70,18.34
427,Cairns,AU,1580086231,-16.92,145.77,86.0,75,74,8.05
428,Zharkent,KZ,1580086433,44.16,80.0,17.44,22,83,2.98
429,George Town,MY,1580086402,5.41,100.34,78.8,20,88,2.82
430,Saint Anthony,US,1580086434,45.02,-93.22,28.99,90,86,3.04
431,General Roca,AR,1580086436,-39.03,-67.58,82.4,0,23,4.7
432,Lensk,RU,1580086436,60.73,114.93,9.1,100,91,12.59
433,Kaeo,NZ,1580086204,-35.1,173.78,89.01,1,64,1.01
434,Aksu,CN,1580086437,41.12,80.26,21.92,79,69,1.68
435,San Luis,AR,1580086240,-33.3,-66.34,87.12,41,24,15.32
436,Narsipatnam,IN,1580086439,17.67,82.62,69.8,20,94,2.24
437,Loreto,MX,1580086439,22.27,-101.97,58.77,91,51,10.54
438,Barcelos,PT,1580086440,41.54,-8.62,55.4,75,87,21.92
439,Airai,TL,1580086440,-8.93,125.41,76.5,33,75,1.23
440,Khovd,MN,1580086441,48.01,91.64,8.76,13,65,2.59
441,Padang,ID,1580086438,-0.95,100.35,69.12,98,95,3.18
442,Sept-Iles,CA,1580086442,50.2,-66.38,27.0,90,92,13.87
443,Westport,US,1580086443,41.14,-73.36,45.0,75,75,4.7
444,Ende,ID,1580086444,-8.84,121.66,83.05,8,77,3.53
445,Gigmoto,PH,1580086445,13.78,124.39,79.86,36,79,7.34
446,Manohar Thana,IN,1580086445,24.24,76.8,58.75,0,45,6.67
447,Villa Maria,AR,1580086234,-32.41,-63.24,73.99,99,85,1.99
448,Am Timan,TD,1580086446,11.03,20.28,63.46,17,18,4.23
449,Ayan,RU,1580086447,56.45,138.17,-5.71,7,56,6.69
450,Saint Charles,US,1580086448,38.78,-90.48,39.99,40,69,6.04
451,Acapulco de Juarez,MX,1580086271,16.86,-99.89,82.4,20,69,9.17
452,Kieta,PG,1580086449,-6.22,155.63,83.39,100,71,5.64
453,Antofagasta,CL,1580086245,-23.65,-70.4,72.0,75,83,10.29
454,Sanghar,PK,1580086451,26.05,68.95,59.0,63,82,5.39
455,Tabou,CI,1580086451,4.42,-7.35,78.22,19,91,3.27
456,Pozo Colorado,PY,1580086452,-23.49,-58.8,83.16,86,33,1.88
457,Ilhabela,BR,1580086452,-23.78,-45.36,76.5,0,76,16.28
458,Wagar,SD,1580086453,16.15,36.2,53.53,0,85,9.04
459,Charlestown,AU,1580086454,-32.95,151.67,84.0,90,74,14.99
460,Nuevo Progreso,MX,1580086455,23.17,-97.95,72.0,96,91,1.99
461,Kintampo,GH,1580086455,8.06,-1.73,75.65,53,10,1.52
462,Sampit,ID,1580086456,-2.53,112.95,77.31,98,95,1.57
463,Matara,LK,1580086457,5.95,80.54,70.23,99,91,3.15
464,Arman,RU,1580086457,59.7,150.17,4.53,89,93,14.43
465,Greenville,US,1580086458,35.61,-77.37,44.01,1,65,4.7
466,Alghero,IT,1580086458,40.56,8.32,46.0,6,93,2.24
467,Fomboni,KM,1580086459,-12.28,43.74,81.82,50,70,5.03
468,Ondjiva,AO,1580086460,-17.07,15.73,73.31,80,72,1.03
469,Touros,BR,1580086460,-5.2,-35.46,80.6,40,88,3.36
470,Zacapoaxtla,MX,1580086461,19.88,-97.58,65.46,49,86,2.1
471,Honiara,SB,1580086461,-9.43,159.95,89.6,20,66,9.17
472,Turiacu,BR,1580086462,-1.66,-45.37,76.73,100,94,3.65
473,Erzin,TR,1580086463,36.96,36.2,44.01,3,86,2.24
474,Bumba,CD,1580086463,2.18,22.47,70.0,34,40,0.72
475,Hay River,CA,1580086464,60.82,-115.8,-0.4,75,84,4.7
476,Porto Walter,BR,1580086464,-8.27,-72.74,77.65,96,88,2.95
477,San Rafael,AR,1580086465,-34.62,-68.33,84.51,5,24,18.14
478,Liverpool,GB,1580086396,53.41,-2.98,42.01,62,100,10.29
479,Khovu-Aksy,RU,1580086467,51.13,93.6,2.79,68,77,5.1
480,Kirakira,SB,1580086468,-10.45,161.92,85.51,92,67,4.34
481,Leningradskiy,RU,1580086468,69.38,178.42,-8.21,100,93,15.1
482,Tautira,PF,1580086469,-17.73,-149.15,89.6,20,66,10.29
483,Bafia,CM,1580086469,4.75,11.23,67.5,74,34,2.64
484,Bereket,TM,1580086470,39.24,55.52,35.22,6,53,5.93
485,Yumen,CN,1580086471,40.28,97.2,16.18,59,63,8.79
486,Were Ilu,ET,1580086471,10.6,39.43,52.77,92,81,5.82
487,Rivne,UA,1580086407,50.62,26.23,31.3,51,82,5.68
488,Beitbridge,ZW,1580086472,-22.22,30.0,82.27,6,39,11.54
489,Datong,CN,1580086473,40.09,113.29,18.41,100,79,2.68
490,Fallingbostel,DE,1580086474,52.87,9.7,41.0,75,93,6.93
491,Salekhard,RU,1580086475,66.53,66.6,-12.96,91,98,6.51
492,Te Anau,NZ,1580086475,-45.42,167.72,61.92,41,80,3.87
493,Skjervoy,NO,1580086476,70.03,20.97,21.6,80,64,20.74
494,Beyneu,KZ,1580086476,45.32,55.2,28.67,62,82,15.88
495,Fairbanks,US,1580086290,64.84,-147.72,-13.0,90,68,4.56
496,Vila Franca do Campo,PT,1580086478,37.72,-25.43,62.6,20,88,13.87
497,Tokur,RU,1580086479,53.13,132.9,-8.52,97,93,1.81
498,Honnali,IN,1580086479,14.25,75.67,62.96,51,67,1.77
499,Lerwick,GB,1580086480,60.15,-1.15,41.0,100,75,13.87
500,Buala,SB,1580086481,-8.14,159.59,87.57,100,61,2.77
501,Nigrita,GR,1580086481,40.91,23.5,51.01,40,87,0.2
502,Mossamedes,AO,1580086445,-15.2,12.15,74.62,29,75,6.8
503,Kasangulu,CD,1580086483,-4.59,15.17,77.0,30,94,1.45
504,Hofn,IS,1580086484,64.25,-15.21,39.36,100,60,21.07
505,Rehoboth,NA,1580086484,-23.32,17.08,66.2,17,22,7.61
506,Samarai,PG,1580086485,-10.62,150.67,88.18,96,57,4.21
507,Tateyama,JP,1580086485,34.98,139.87,44.6,75,52,8.05
508,Kalamare,BW,1580086486,-22.93,26.57,74.1,26,52,1.9
509,Antequera,ES,1580086487,37.02,-4.56,53.6,8,66,16.11
510,Chernyshevskiy,RU,1580086488,63.01,112.47,2.26,93,96,5.46
511,Zhuanghe,CN,1580086488,39.7,122.99,37.99,100,42,13.33
512,Burns Lake,CA,1580086489,54.23,-125.75,28.38,100,93,3.06
513,Juneau,US,1580086490,58.3,-134.42,39.99,90,100,6.49
514,Kalengwa,ZM,1580086490,-13.47,25.0,63.77,100,98,2.15
515,Sisimiut,GL,1580086491,66.94,-53.67,2.41,100,94,4.92
516,Chabahar,IR,1580086491,25.29,60.64,60.66,0,57,8.5
517,Iskateley,RU,1580086492,67.68,53.15,-8.64,100,97,8.97
518,Kolondieba,ML,1580086493,11.09,-6.89,71.35,41,12,3.18
519,Gambela,ET,1580086493,8.25,34.58,73.89,95,24,2.82
520,Kropotkin,RU,1580086494,45.44,40.58,36.95,99,89,3.11
521,Lavrentiya,RU,1580086494,65.58,-171.0,-14.84,0,86,1.14
522,Cockburn Town,TC,1580086495,21.46,-71.14,75.76,12,75,12.46
523,Alamos,MX,1580086496,27.02,-108.93,71.01,0,68,3.0
524,San Quintin,MX,1580086496,30.48,-115.95,57.97,55,82,11.72
525,Shahr-e Kord,IR,1580086497,32.33,50.86,14.0,0,78,5.06
526,Sorland,NO,1580086497,67.67,12.69,27.88,100,97,28.45
527,Chulym,RU,1580086498,55.1,80.96,12.96,100,83,19.95
528,Kultuk,RU,1580086499,51.72,103.7,11.03,24,78,3.91
529,Liku,ID,1580086499,-0.73,119.89,74.97,80,92,2.75
530,Tessalit,ML,1580086500,20.2,1.01,71.65,79,10,8.34
531,Blagoveshchenka,RU,1580086500,52.83,79.87,14.49,100,80,21.0
532,Tallahassee,US,1580086272,30.44,-84.28,53.01,90,93,4.36
533,Martapura,ID,1580086502,-3.42,114.85,78.8,20,94,2.24
534,Vezirkopru,TR,1580086503,41.14,35.45,21.2,0,85,4.97
535,Villa Bruzual,VE,1580086504,9.33,-69.12,82.49,63,50,1.03
536,Alugan,PH,1580086505,12.22,125.48,78.12,27,86,4.56
537,Vaitape,PF,1580086505,-16.52,-151.75,83.41,90,72,9.93
538,Kirillov,RU,1580086506,59.86,38.38,14.5,75,90,6.93
539,Kyra,RU,1580086506,49.58,111.98,2.86,13,70,2.86
540,Paracuru,BR,1580086225,-3.41,-39.03,86.0,20,83,3.36
541,Dunedin,NZ,1580086508,-45.87,170.5,71.01,78,67,9.24
542,Puerto Maldonado,PE,1580086508,-12.6,-69.18,82.27,91,72,2.51
543,Xinzhou,CN,1580086509,38.41,112.73,21.72,100,71,0.83
544,Camacha,PT,1580086509,33.08,-16.33,59.0,20,77,2.55
545,Mama,RU,1580086510,58.31,112.9,5.0,100,99,3.29
546,Iqaluit,CA,1580086511,63.75,-68.51,-25.01,40,67,9.17
547,Muroto,JP,1580086511,33.28,134.15,51.8,75,87,8.05
548,Dwarka,IN,1580086512,22.24,68.97,71.29,0,85,12.08
549,Oddur,SO,1580086512,4.12,43.89,74.82,0,77,16.08
550,Bequimao,BR,1580086385,-2.45,-44.78,78.8,75,88,10.29
551,La Concordia,NI,1580086514,13.2,-86.17,66.6,25,64,4.18
552,Makungu,TZ,1580086515,-8.73,35.28,59.72,100,95,4.36
553,Klyuchi,RU,1580086515,52.27,79.17,18.95,100,76,21.83
554,Bonthe,SL,1580086517,7.53,-12.51,76.48,1,82,4.68
555,Jiayuguan,CN,1580086517,39.82,98.3,18.14,9,55,8.93
556,Kununurra,AU,1580086518,-15.77,128.73,89.6,34,75,5.82
557,Yarada,IN,1580086518,17.65,83.27,69.8,20,94,2.24
558,Soligalich,RU,1580086519,59.08,42.29,21.02,98,94,9.26
559,Avera,US,1580086520,33.19,-82.53,55.4,90,50,5.82
560,Zemio,CF,1580086520,5.03,25.14,67.05,43,35,3.98
561,Sao Joao da Barra,BR,1580086521,-21.64,-41.05,76.08,68,80,7.58
562,Gorontalo,ID,1580086521,0.54,123.06,80.33,59,85,2.21
563,Kapit,MY,1580086522,2.02,112.93,75.34,69,97,0.43
564,Danville,US,1580086523,36.59,-79.39,42.8,1,80,3.69
565,La Primavera,CO,1580086523,5.49,-70.41,87.4,58,41,3.58
566,Presidencia Roque Saenz Pena,AR,1580086524,-26.79,-60.44,81.79,5,46,1.28
567,Katesh,TZ,1580086525,-4.52,35.38,61.66,100,98,3.98
568,Tashtagol,RU,1580086526,52.77,87.89,4.39,62,83,3.8
569,Igarka,RU,1580086526,67.47,86.58,-2.38,96,96,11.56
570,Nanchang,CN,1580086341,28.68,115.88,40.96,85,80,7.7
571,Kamenka,RU,1580086395,51.32,42.77,32.0,93,84,15.14
572,Ketchikan,US,1580086528,55.34,-131.65,42.8,90,87,19.46
573,Micheweni,TZ,1580086529,-4.97,39.83,81.27,95,82,4.36
574,Vilyuysk,RU,1580086529,63.76,121.62,-24.36,100,96,8.21
575,Mahajanga,MG,1580086530,-15.72,46.32,77.0,20,100,3.36
576,Odesa,UA,1580086531,46.48,30.73,24.8,0,100,2.24
577,Miranda,CO,1580086532,3.25,-76.23,77.0,40,65,9.17
578,Lixouri,GR,1580086532,38.2,20.43,60.67,100,79,16.75
579,Saint-Louis,SN,1580086533,16.33,-15.0,82.4,99,23,2.24
580,Novo Aripuana,BR,1580086384,-5.12,-60.38,81.64,79,65,1.9
581,Abnub,EG,1580086534,27.27,31.15,46.4,44,75,4.7
582,Tocopilla,CL,1580086534,-22.09,-70.2,64.24,7,64,4.47
583,Dukhovshchina,RU,1580086535,55.19,32.41,34.56,100,92,10.63
584,Rodrigues Alves,BR,1580086536,-7.74,-72.65,76.93,99,94,1.68
585,Salisbury,GB,1580086401,51.07,-1.8,48.0,75,100,8.05
586,Sur,OM,1580086537,22.57,59.53,63.12,27,49,13.8
587,Mecca,SA,1580086506,21.43,39.83,60.94,0,26,6.93
588,Muyezerskiy,RU,1580086538,63.93,31.65,6.67,35,94,5.19
589,Colonia Carlos Antonio Lopez,PY,1580086539,-26.4,-54.77,76.28,0,49,2.75
590,Arica,CL,1580086539,-18.48,-70.3,77.0,75,73,4.7
591,Kitovo,RU,1580086540,56.87,41.28,32.32,99,84,17.11
592,Esim,GH,1580086540,4.87,-2.24,76.05,57,82,0.54
593,Tiznit,MA,1580086541,29.58,-9.5,49.32,0,70,0.92
