City #,City,Country,Date,Latitude,Longitude,Max Temperature,Cloudiness,Humidity,Wind Speed
0,Inverell,AU,1579956572,-29.78,151.12,73.0,15,91,1.01
1,Atuona,PF,1579956573,-9.8,-139.03,80.38,1,78,14.61
2,Hobart,AU,1579956573,-42.88,147.33,66.99,100,81,11.7
3,Saskylakh,RU,1579956574,71.92,114.08,-19.34,100,91,21.36
4,Wanning,CN,1579956574,18.8,110.4,70.3,33,87,2.71
5,Kapaa,US,1579956575,22.08,-159.32,68.0,29,59,7.54
6,George Town,MY,1579956576,5.41,100.34,84.0,12,74,5.99
7,Yulara,AU,1579956576,-25.24,130.99,87.53,0,16,7.7
8,Jamestown,US,1579956571,42.1,-79.24,37.99,100,10,1.99
9,Baykit,RU,1579956577,61.67,96.37,15.91,100,96,3.18
10,Hilo,US,1579956578,19.73,-155.09,69.01,6,90,1.99
11,Turukhansk,RU,1579956579,65.82,87.98,8.78,100,94,7.96
12,Tabuk,PH,1579956579,17.42,121.44,71.87,97,92,3.89
13,Hithadhoo,MV,1579956580,-0.6,73.08,83.01,85,75,10.16
14,Vaini,TO,1579956580,-21.2,-175.2,78.37,66,86,17.98
15,Quatre Cocos,MU,1579956581,-20.21,57.76,82.0,75,88,19.46
16,Suhbaatar,MN,1579956582,50.23,106.21,1.11,7,81,4.23
17,Ushuaia,AR,1579956582,-54.8,-68.3,44.37,67,84,7.36
18,Busselton,AU,1579956468,-33.65,115.33,73.99,87,41,16.71
19,Pevek,RU,1579956583,69.7,170.31,-19.3,100,97,5.21
20,Bambous Virieux,MU,1579956584,-20.34,57.76,82.0,75,88,19.46
21,Port Elizabeth,ZA,1579956304,-33.92,25.57,80.6,20,57,14.99
22,Praia,CV,1579956585,14.92,-23.51,73.13,82,67,19.37
23,Olafsvik,IS,1579956586,64.89,-23.71,27.95,100,94,30.89
24,Verkhnevilyuysk,RU,1579956586,63.45,120.32,-28.75,72,94,6.87
25,Mataura,NZ,1579956588,-46.19,168.86,57.99,99,83,1.59
26,Boras,SE,1579956293,57.72,12.94,44.01,47,86,4.0
27,Homer,US,1579956589,59.64,-151.55,1.99,31,78,9.6
28,Nsanje,MW,1579956589,-16.92,35.26,81.7,64,75,4.9
29,Tuktoyaktuk,CA,1579956590,69.45,-133.04,-12.75,100,97,17.31
30,Puerto Ayora,EC,1579956591,-0.74,-90.35,75.0,65,31,4.0
31,Shelburne,CA,1579956591,44.08,-80.2,37.0,100,90,12.39
32,Moussoro,TD,1579956592,13.64,16.49,80.76,0,9,17.25
33,Rikitea,PF,1579956592,-23.12,-134.97,77.95,4,80,12.84
34,Manokwari,ID,1579956545,-0.87,134.08,74.55,93,89,3.11
35,Butaritari,KI,1579956594,3.07,172.79,85.77,73,70,9.15
36,Fatezh,RU,1579956595,52.09,35.86,34.0,100,90,16.62
37,San Patricio,MX,1579956402,19.22,-104.7,74.21,53,80,5.12
38,Cap Malheureux,MU,1579956596,-19.98,57.61,82.0,75,88,19.46
39,Padang,ID,1579956358,-0.95,100.35,71.76,100,98,1.32
40,Hermanus,ZA,1579956572,-34.42,19.23,78.01,23,80,5.99
41,Chui,UY,1579956598,-33.7,-53.46,78.1,26,47,9.28
42,Albany,US,1579956333,42.6,-73.97,37.0,99,69,6.71
43,Egvekinot,RU,1579956447,66.32,-179.17,-5.1,81,96,0.76
44,Portland,US,1579956321,45.52,-122.68,48.0,100,96,6.13
45,Iqaluit,CA,1579956601,63.75,-68.51,-25.01,38,60,10.0
46,Yellowknife,CA,1579956320,62.46,-114.35,1.0,45,84,15.99
47,Ostrovnoy,RU,1579956603,68.05,39.51,9.32,100,93,2.75
48,Devils Lake,US,1579956562,48.11,-98.87,7.61,0,85,7.09
49,Garden City,US,1579956539,42.33,-83.33,36.0,100,97,7.99
50,Bay Roberts,CA,1579956399,47.6,-53.26,18.0,0,79,2.98
51,Hambantota,LK,1579956605,6.12,81.12,83.71,99,73,20.07
52,Kirakira,SB,1579956606,-10.45,161.92,78.1,36,85,3.96
53,Peniche,PT,1579956606,39.36,-9.38,59.0,22,78,1.99
54,Sitka,US,1579956607,57.05,-135.33,33.55,99,67,6.17
55,Pergamino,AR,1579956484,-33.89,-60.57,87.01,0,70,1.99
56,Punta Arenas,CL,1579956610,-53.15,-70.92,51.01,100,71,17.0
57,Arraial do Cabo,BR,1579956610,-22.97,-42.03,75.43,22,83,20.76
58,Golpayegan,IR,1579956611,33.45,50.29,35.33,24,36,4.21
59,Sao Joao da Barra,BR,1579956611,-21.64,-41.05,75.15,100,81,1.01
60,Ahipara,NZ,1579956612,-35.17,173.17,63.0,17,98,9.91
61,Los Llanos de Aridane,ES,1579956613,28.66,-17.92,59.0,1,68,3.0
62,Cherskiy,RU,1579956613,68.75,161.3,-27.9,100,92,1.14
63,Mahebourg,MU,1579956614,-20.41,57.7,82.0,75,88,19.46
64,Anjiang,CN,1579956615,27.32,110.1,37.42,100,98,3.0
65,Hermosillo,MX,1579956400,29.07,-110.97,57.99,86,82,3.89
66,Tiznit,MA,1579956616,29.58,-9.5,53.56,15,61,5.79
67,French Harbor,HN,1579956616,16.35,-86.43,77.79,59,65,11.72
68,Qaanaaq,GL,1579956617,77.48,-69.36,-12.77,93,56,1.05
69,Khatanga,RU,1579956618,71.97,102.5,-20.27,85,91,2.42
70,Biograd na Moru,HR,1579956490,43.94,15.45,53.6,20,81,8.05
71,Bengkulu,ID,1579956619,-3.8,102.27,76.48,100,92,2.42
72,Ust'-Koksa,RU,1579956619,50.27,85.61,15.69,86,95,10.18
73,Cape Town,ZA,1579956487,-33.93,18.42,78.01,20,64,21.92
74,Longyearbyen,SJ,1579956621,78.22,15.64,-12.55,0,60,3.02
75,Bathsheba,BB,1579956622,13.22,-59.52,78.93,51,76,10.18
76,Pangnirtung,CA,1579956622,66.15,-65.71,-37.26,100,99,2.08
77,San Rafael,AR,1579956623,-34.62,-68.33,78.89,0,21,14.83
78,Upernavik,GL,1579956624,72.79,-56.15,-10.48,100,92,5.08
79,Kapit,MY,1579956625,2.02,112.93,74.28,55,89,0.25
80,Karwar,IN,1579956625,14.8,74.13,82.63,99,60,5.21
81,Departamento de Maldonado,UY,1579956506,-34.67,-54.92,77.49,82,44,14.81
82,Aranos,NA,1579956627,-24.13,19.12,94.6,0,14,14.76
83,Thompson,CA,1579956628,55.74,-97.86,9.75,11,96,3.67
84,Souillac,MU,1579956628,-20.52,57.52,82.0,75,88,19.46
85,Rudbar,AF,1579956629,30.15,62.6,59.59,39,67,1.95
86,Hue,VN,1579956630,16.47,107.6,72.0,100,94,3.22
87,Makakilo City,US,1579956630,21.35,-158.09,69.01,3,77,3.58
88,Clearwater,US,1579956631,27.97,-82.8,59.0,0,72,4.0
89,Bredasdorp,ZA,1579956631,-34.53,20.04,78.8,15,61,12.75
90,Narsaq,GL,1579956632,60.92,-46.05,14.0,75,85,3.02
91,Castro,BR,1579956633,-24.79,-50.01,65.43,93,74,1.12
92,Healdsburg,US,1579956633,38.61,-122.87,55.0,90,100,4.7
93,Lavrentiya,RU,1579956634,65.58,-171.0,-16.11,0,75,1.86
94,Hualmay,PE,1579956634,-11.1,-77.61,72.81,100,72,1.74
95,Esperance,AU,1579956635,-33.87,121.9,66.43,29,82,9.95
96,Port Hedland,AU,1579956636,-20.32,118.57,89.28,0,62,14.0
97,Batemans Bay,AU,1579956637,-35.72,150.18,73.99,8,95,1.7
98,Norman Wells,CA,1579956637,65.28,-126.83,-12.03,100,96,10.31
99,Thunder Bay,CA,1579956638,48.4,-89.32,28.0,97,83,3.0
100,Tiksi,RU,1579956639,71.69,128.87,-30.32,0,76,4.85
101,Bluff,NZ,1579956639,-46.6,168.33,57.99,83,84,3.44
102,Ferrol,ES,1579956640,43.48,-8.24,57.0,5,68,3.22
103,Avarua,CK,1579956640,-21.21,-159.78,80.02,100,87,14.27
104,Lavaca,US,1579956362,28.61,-96.63,53.01,38,76,3.0
105,Chapais,CA,1579956642,49.78,-74.85,14.65,97,93,6.76
106,Horta,PT,1579956367,38.53,-28.63,57.72,100,95,15.26
107,Kruisfontein,ZA,1579956643,-34.0,24.73,81.61,0,54,14.0
108,Port Alfred,ZA,1579956643,-33.59,26.89,75.99,0,77,4.0
109,Sangar,RU,1579956645,63.92,127.47,-40.47,3,90,4.5
110,Nemuro,JP,1579956645,43.32,145.57,18.39,82,75,33.33
111,Saint-Philippe,RE,1579956646,-21.36,55.77,75.99,89,93,1.01
112,Kungurtug,RU,1579956646,50.6,97.52,7.03,37,73,5.66
113,Ulaangom,MN,1579956647,49.98,92.07,-3.06,100,93,2.91
114,Airai,TL,1579956648,-8.93,125.41,70.3,100,98,1.34
115,Fortuna,US,1579956648,40.6,-124.16,57.99,100,87,5.99
116,Pisco,PE,1579956649,-13.7,-76.22,71.01,100,91,1.36
117,Sai Buri,TH,1579956649,6.7,101.62,73.29,13,87,4.03
118,Oistins,BB,1579956650,13.07,-59.53,78.93,51,76,10.18
119,Salalah,OM,1579956650,17.02,54.09,77.41,0,70,7.43
120,Bilibino,RU,1579956651,68.05,166.44,-13.68,99,92,2.82
121,Lorengau,PG,1579956652,-2.02,147.27,84.25,32,70,7.18
122,Baiquan,CN,1579956652,47.58,126.08,-7.26,35,99,5.41
123,San Ramon de la Nueva Oran,AR,1579956653,-23.13,-64.33,78.51,55,51,0.56
124,Bucerias,MX,1579956653,20.75,-105.33,73.0,98,94,0.38
125,Richards Bay,ZA,1579956654,-28.78,32.04,80.73,100,76,31.81
126,Shipitsyno,RU,1579956655,61.28,46.52,16.9,100,96,1.97
127,Marsaxlokk,MT,1579956655,35.84,14.54,63.0,82,81,8.01
128,Geraldton,AU,1579956656,-28.77,114.6,73.51,0,77,24.23
129,General Pico,AR,1579956656,-35.66,-63.76,84.06,0,15,6.73
130,Gweta,BW,1579956657,-20.18,25.23,88.59,69,34,4.85
131,Yumen,CN,1579956658,40.28,97.2,22.87,0,56,10.29
132,Kodiak,US,1579956658,57.79,-152.41,18.36,90,83,19.08
133,Bethel,US,1579956659,41.37,-73.41,41.0,84,92,4.0
134,Atherton,GB,1579956660,53.52,-2.49,45.0,89,80,1.99
135,Nikolskoye,RU,1579956661,59.7,30.79,33.01,67,76,1.01
136,Hofn,IS,1579956661,64.25,-15.21,37.98,100,71,20.22
137,Galyugayevskaya,RU,1579956662,43.7,44.93,37.0,100,64,3.31
138,Erbil,IQ,1579956662,36.19,44.01,52.39,0,42,13.53
139,Monrovia,LR,1579956378,6.3,-10.8,88.9,47,50,2.13
140,Torbay,CA,1579956664,47.67,-52.73,18.0,0,76,7.0
141,Santa Luzia,BR,1579956665,-19.77,-43.85,67.8,100,93,8.5
142,Hervey Bay,AU,1579956666,-25.3,152.85,81.0,88,73,3.0
143,Pacific Grove,US,1579956567,36.62,-121.92,54.0,54,92,6.71
144,New Norfolk,AU,1579956667,-42.78,147.06,66.99,100,67,3.0
145,Benguela,AO,1579956668,-12.58,13.41,81.3,99,71,11.18
146,Tabas,IR,1579956668,33.6,56.92,54.52,0,29,7.99
147,Andrews,US,1579956669,32.32,-102.55,45.66,92,74,7.54
148,Beatrice,US,1579956670,40.27,-96.75,21.0,84,92,2.71
149,Merauke,ID,1579956671,-8.47,140.33,77.41,100,87,5.12
150,Cidreira,BR,1579956671,-30.18,-50.21,70.65,0,74,8.61
151,Leningradskiy,RU,1579956672,69.38,178.42,-15.45,99,85,2.15
152,Noria,IN,1579956674,32.52,74.8,57.72,86,62,4.16
153,Mossamedes,AO,1579956675,-15.2,12.15,74.89,6,76,10.29
154,Berlevag,NO,1579956676,70.86,29.09,23.88,97,71,22.7
155,Barentu,ER,1579956676,15.11,37.59,83.46,0,17,10.29
156,Ribeira Grande,PT,1579956677,38.52,-28.7,57.96,100,95,13.62
157,Cabo San Lucas,MX,1579956570,22.89,-109.91,64.99,100,89,1.01
158,Hong Kong,HK,1579956598,22.29,114.16,68.0,100,96,1.01
159,Dikson,RU,1579956679,73.51,80.55,-4.81,100,97,10.18
160,Tasiilaq,GL,1579956679,65.61,-37.64,23.0,75,53,9.17
161,Oviedo,ES,1579956608,43.36,-5.84,59.0,23,75,1.99
162,Nouadhibou,MR,1579956680,20.93,-17.03,66.96,18,56,12.5
163,Port Lincoln,AU,1579956681,-34.73,135.87,66.67,4,80,9.6
164,Waipawa,NZ,1579956682,-41.41,175.52,66.0,56,85,4.0
165,La Tuque,CA,1579956570,47.43,-72.78,17.24,98,96,1.99
166,Santiago del Estero,AR,1579956683,-27.8,-64.26,79.92,12,52,9.17
167,Pombia,IT,1579956684,45.65,8.63,48.0,20,56,1.12
168,Churapcha,RU,1579956685,62.0,132.43,-41.49,2,97,4.32
169,Lompoc,US,1579956685,34.64,-120.46,57.2,1,62,14.88
170,Te Anau,NZ,1579956604,-45.42,167.72,54.93,67,86,4.79
171,Santa Maria,BR,1579956470,-29.68,-53.81,73.4,0,78,2.24
172,Flinders,AU,1579956687,-34.58,150.86,77.0,98,22,3.0
173,Carnarvon,AU,1579956688,-24.87,113.63,78.15,1,72,26.93
174,Bondo,CD,1579956688,3.81,23.69,97.9,10,11,4.18
175,Maningrida,AU,1579956689,-12.07,134.27,84.97,59,80,16.44
176,Manaure,CO,1579956689,11.78,-72.44,76.62,0,79,5.7
177,Chokurdakh,RU,1579956690,70.63,147.92,-33.36,19,95,1.74
178,Carmelo,UY,1579956620,-33.99,-58.29,82.99,0,70,5.99
179,Naze,JP,1579956691,28.37,129.48,69.64,100,85,6.76
180,Khvastovichi,RU,1579956692,53.47,35.09,34.97,99,95,15.84
181,Alangayam,IN,1579956692,12.6,78.75,78.04,91,35,4.7
182,Kaeo,NZ,1579956693,-35.1,173.78,63.0,0,98,7.16
183,Yershichi,RU,1579956694,53.67,32.75,35.56,100,94,15.7
184,Sokoto,NG,1579956694,13.06,5.24,85.6,19,5,24.11
185,Marzuq,YE,1579956695,14.4,46.47,83.7,7,36,16.02
186,Yauya,PE,1579956696,-8.98,-77.3,42.69,100,87,0.63
187,Baturaja,ID,1579956697,-4.13,104.17,76.39,74,92,0.85
188,Port Said,EG,1579956697,31.26,32.28,57.74,1,47,5.91
189,Inhambane,MZ,1579956698,-23.86,35.38,80.74,55,65,12.03
190,Jiazi,CN,1579956698,22.88,116.07,62.35,100,90,9.31
191,Whitianga,NZ,1579956699,-36.83,175.7,66.99,31,87,4.0
192,Nam Som,TH,1579956700,17.77,102.19,80.19,96,42,1.68
193,Charters Towers,AU,1579956701,-20.1,146.27,78.57,100,84,12.86
194,Bereda,ES,1579956701,43.27,-7.54,54.0,22,95,1.01
195,Sucre,BO,1579956605,-19.03,-65.26,52.38,86,67,1.5
196,Beringovskiy,RU,1579956703,63.05,179.32,16.9,100,91,13.15
197,Gurupa,BR,1579956703,-1.41,-51.64,80.6,97,82,3.94
198,Vao,NC,1579956704,-22.67,167.48,78.03,35,82,24.09
199,East London,ZA,1579956705,-33.02,27.91,84.2,20,51,6.93
200,Iraquara,BR,1579956706,-12.25,-41.62,72.28,100,87,1.16
201,Saint-Pierre,RE,1579956706,-21.34,55.48,75.99,94,94,1.01
202,Armizonskoye,RU,1579956707,55.95,67.67,1.29,73,94,11.1
203,Rio Grande,BR,1579956707,-32.03,-52.1,84.0,0,59,1.99
204,Ancud,CL,1579956708,-41.87,-73.82,58.55,100,98,3.91
205,Laas,IT,1579956709,46.62,10.7,44.6,40,45,3.36
206,Osmena,PH,1579956709,10.52,119.93,80.42,88,87,8.08
207,Klaksvik,FO,1579956710,62.23,-6.59,47.32,100,83,32.32
208,Sibu,MY,1579956710,2.3,111.82,78.01,25,94,5.01
209,Saint-Augustin,CA,1579956711,51.23,-58.65,7.07,0,71,11.39
210,Barrow,US,1579956699,71.29,-156.79,-34.6,20,97,8.05
211,Sorland,NO,1579956712,67.67,12.69,37.36,42,63,12.28
212,Escanaba,US,1579956713,45.75,-87.06,33.01,100,99,7.29
213,Vanimo,PG,1579956713,-2.67,141.3,83.5,0,80,13.13
214,Riyadh,SA,1579956714,24.69,46.72,61.52,0,26,14.61
215,Tura,IN,1579956715,25.52,90.22,61.41,0,63,5.41
216,Mount Isa,AU,1579956715,-20.73,139.5,78.3,100,83,12.35
217,Auki,SB,1579956716,-8.77,160.7,85.68,56,73,4.45
218,Husavik,IS,1579956711,66.04,-17.34,32.0,90,91,18.34
219,Mnogovershinnyy,RU,1579956717,53.94,139.92,-16.28,0,86,6.58
220,Ilulissat,GL,1579956718,69.22,-51.1,8.6,20,50,10.29
221,Evensk,RU,1579956719,61.95,159.23,12.92,100,89,17.83
222,Danville,US,1579956719,36.59,-79.39,48.99,52,95,3.0
223,Fenoarivo,MG,1579956720,-18.93,47.44,65.61,100,88,9.13
224,Arni,IN,1579956721,12.67,79.28,80.83,99,46,7.61
225,Sept-Iles,CA,1579956681,50.2,-66.38,-2.0,7,82,4.88
226,Tancheng,CN,1579956722,27.44,115.5,43.68,100,95,7.81
227,Margate,GB,1579956722,51.38,1.39,43.0,55,89,4.0
228,Muravlenko,RU,1579956723,63.79,74.52,-0.36,97,96,9.57
229,Lakes Entrance,AU,1579956724,-37.88,147.98,64.0,49,84,5.99
230,Kashgar,CN,1579956627,39.45,75.98,29.12,21,47,7.05
231,Serebryanyy Bor,RU,1579956725,56.8,124.8,-19.34,98,93,3.15
232,Saint George,US,1579956574,37.1,-113.58,39.0,1,92,4.7
233,Ponta do Sol,PT,1579956726,32.67,-17.1,63.0,0,62,8.99
234,Abeche,TD,1579956727,13.83,20.83,83.44,0,6,12.44
235,Renqiu,CN,1579956727,38.7,116.09,35.51,1,40,0.34
236,Lhokseumawe,ID,1579956728,5.18,97.15,72.84,74,84,1.36
237,Northam,GB,1579956728,51.03,-4.22,46.0,49,90,5.99
238,Touros,BR,1579956436,-5.2,-35.46,82.22,37,82,17.69
239,Kumul,CN,1579956730,42.8,93.45,10.26,0,80,0.65
240,Dallas,US,1579956591,32.77,-96.78,45.0,1,61,5.82
241,Rawson,AR,1579956731,-43.3,-65.1,60.71,1,71,6.73
242,Grindavik,IS,1579956731,63.84,-22.43,37.4,90,93,24.16
243,Jensen Beach,US,1579956732,27.25,-80.23,66.0,67,100,5.99
244,Artyom,AZ,1579956733,40.47,50.33,44.17,12,57,28.36
245,Santiago de Cuba,CU,1579956570,20.02,-75.82,64.0,0,93,8.01
246,Matata,NZ,1579956734,-37.88,176.75,68.0,0,95,5.14
247,Cockburn Town,TC,1579956532,21.46,-71.14,75.87,30,63,7.29
248,Sola,VU,1579956735,-13.88,167.55,82.02,5,80,15.05
249,Okha,RU,1579956736,53.57,142.95,-12.35,48,87,18.99
250,Teknaf,BD,1579956737,20.86,92.31,60.31,0,57,2.86
251,Acapulco de Juarez,MX,1579956712,16.86,-99.89,68.47,0,85,3.87
252,Tymovskoye,RU,1579956738,50.85,142.66,-14.55,79,94,3.33
253,Solnechnyy,RU,1579956739,50.72,136.63,-14.24,3,77,3.62
254,Kochki,RU,1579956739,54.34,80.48,18.28,99,89,14.0
255,Matara,LK,1579956740,5.95,80.54,82.49,100,74,2.48
256,Tavda,RU,1579956740,58.04,65.27,6.58,96,95,6.06
257,San Cristobal,VE,1579956741,7.77,-72.22,55.4,100,91,0.87
258,Tahta,EG,1579956742,26.77,31.5,64.65,0,24,13.96
259,Kunming,CN,1579956714,25.04,102.72,38.53,89,89,3.87
260,Hasaki,JP,1579956743,35.73,140.83,42.01,100,77,15.08
261,Pochutla,MX,1579956743,15.74,-96.47,78.12,0,79,6.17
262,Kautokeino,NO,1579956744,69.01,23.04,11.3,89,94,7.65
263,Tolaga Bay,NZ,1579956604,-38.37,178.3,68.14,1,81,3.56
264,Inirida,CO,1579956745,3.87,-67.92,76.96,100,86,0.78
265,Ganzhou,CN,1579956746,28.82,115.43,40.42,100,90,6.67
266,Gladstone,AU,1579956747,-23.85,151.25,79.0,100,83,1.01
267,Laguna,US,1579956747,38.42,-121.42,52.0,90,87,4.63
268,Kailua,US,1579956713,21.4,-157.74,69.01,0,78,12.24
269,Swan Hill,AU,1579956748,-35.34,143.55,71.01,0,50,6.55
270,Sestri Levante,IT,1579956749,44.27,9.4,51.01,100,81,5.99
271,Beyneu,KZ,1579956721,45.32,55.2,32.49,80,47,20.83
272,Southwick,US,1579956751,42.05,-72.77,37.99,100,86,12.73
273,Birzai,LT,1579956751,56.2,24.75,39.54,90,77,15.46
274,Verkhnyaya Inta,RU,1579956752,65.98,60.31,-1.79,89,97,5.46
275,Kinsale,IE,1579956752,51.71,-8.53,46.99,66,96,10.0
276,Ketchikan,US,1579956667,55.34,-131.65,36.23,100,99,4.74
277,Abha,SA,1579956754,18.22,42.51,66.69,93,64,4.9
278,Saldanha,ZA,1579956754,-33.01,17.94,75.2,81,60,9.17
279,Aklavik,CA,1579956755,68.22,-135.01,-12.98,100,95,25.68
280,Mar del Plata,AR,1579956755,-38.0,-57.56,69.01,67,92,5.55
281,Doha,QA,1579956741,25.29,51.53,79.0,0,25,3.0
282,Codrington,AU,1579956757,-38.27,141.97,63.14,32,90,14.88
283,Novoagansk,RU,1579956757,61.94,76.66,-0.17,97,98,7.47
284,Marawi,PH,1579956758,8.0,124.29,81.0,85,86,5.01
285,Raudeberg,NO,1579956758,61.99,5.14,46.0,100,91,39.66
286,Anadyr,RU,1579956759,64.75,177.48,4.08,100,95,8.77
287,Orodara,BF,1579956760,10.95,-4.93,91.47,0,6,11.36
288,Jalu,LY,1579956760,29.03,21.55,62.74,63,35,9.44
289,Mildura,AU,1579956761,-34.2,142.15,68.0,0,50,9.08
290,Nantucket,US,1579956762,41.28,-70.1,44.01,30,94,7.0
291,Roald,NO,1579956763,62.58,6.13,45.0,100,77,13.0
292,Katsuura,JP,1579956764,35.13,140.3,48.0,100,60,5.99
293,Ano Mera,GR,1579956764,37.45,25.4,57.99,0,63,7.0
294,Malinovoye Ozero,RU,1579956765,51.68,79.78,24.35,100,86,8.7
295,San Gabriel,US,1579956766,34.1,-118.11,55.4,20,54,3.36
296,Monduli,TZ,1579956766,-3.3,36.45,76.98,100,65,4.14
297,Millbrae,US,1579956699,37.6,-122.39,55.0,92,97,2.84
298,Safi,MA,1579956767,32.3,-9.24,61.02,45,67,20.98
299,Yar-Sale,RU,1579956743,66.83,70.83,0.37,81,97,4.0
300,Nelson Bay,AU,1579956769,-32.72,152.15,77.0,51,91,1.01
301,Wajir,KE,1579956769,1.75,40.06,94.55,98,36,10.27
302,Provideniya,RU,1579956770,64.38,-173.3,-9.11,14,95,6.44
303,Mishkino,RU,1579956770,55.34,63.92,6.84,17,93,11.68
304,Arlit,NE,1579956771,18.74,7.39,88.68,21,5,16.04
305,Ekhabi,RU,1579956772,53.51,142.97,-12.35,48,87,18.99
306,Logansport,US,1579956772,40.75,-86.36,34.0,90,100,11.41
307,Avera,US,1579956773,33.19,-82.53,42.01,1,93,6.93
308,Salimpur,IN,1579956773,28.13,76.28,62.37,5,44,4.76
309,Dukat,RU,1579956774,62.55,155.55,-30.35,100,98,6.53
310,Luderitz,NA,1579956774,-26.65,15.16,67.03,0,87,11.92
311,Sanremo,IT,1579956776,43.82,7.76,57.2,75,71,13.87
312,Emba,KZ,1579956776,48.83,58.14,17.83,99,93,23.47
313,Gao,ML,1579956777,16.64,1.64,91.04,42,5,18.43
314,Kurikka,FI,1579956777,62.58,22.42,30.99,5,62,7.0
315,San Quintin,MX,1579956778,30.48,-115.95,56.84,0,86,6.46
316,Harper,LR,1579956779,4.38,-7.72,90.97,25,52,4.5
317,Kinablangan,PH,1579956780,7.69,126.55,72.52,71,93,2.73
318,Isangel,VU,1579956781,-19.55,169.27,78.06,10,83,14.12
319,Byron Bay,AU,1579956537,-28.65,153.62,77.0,76,90,2.24
320,Peterhead,GB,1579956765,57.51,-1.8,46.99,100,80,21.0
321,Darhan,MN,1579956779,49.49,105.92,5.85,15,79,6.13
322,Ilhabela,BR,1579956784,-23.78,-45.36,75.9,2,74,10.51
323,Stornoway,GB,1579956785,58.21,-6.39,46.99,100,95,5.99
324,Santa Isabel do Rio Negro,BR,1579956786,-0.41,-65.02,76.62,100,96,2.51
325,Kavaratti,IN,1579956701,10.57,72.64,82.98,100,63,7.05
326,Sainte-Suzanne,RE,1579956787,-20.91,55.61,75.99,97,88,3.94
327,Sioux Lookout,CA,1579956788,50.1,-91.92,20.52,100,97,1.52
328,Vila Franca do Campo,PT,1579956714,37.72,-25.43,63.0,100,76,8.99
329,Petatlan,MX,1579956789,17.52,-101.27,77.11,24,73,8.23
330,Suntar,RU,1579956790,62.14,117.63,-6.92,100,98,4.85
331,Wanaka,NZ,1579956791,-44.7,169.15,53.2,51,94,7.27
332,Dongying,CN,1579956791,37.46,118.49,36.79,53,50,4.97
333,Galesong,ID,1579956792,-5.32,119.37,81.7,57,75,2.15
334,Rocha,UY,1579956793,-34.48,-54.33,77.38,65,42,14.99
335,Bilma,NE,1579956794,18.69,12.92,76.15,49,9,14.29
336,Eureka,US,1579956794,40.8,-124.16,57.99,100,93,1.01
337,Bonthe,SL,1579956795,7.53,-12.51,89.89,0,50,3.33
338,Pontianak,ID,1579956795,-0.03,109.33,76.6,100,92,2.68
339,Mporokoso,ZM,1579956796,-9.37,30.12,76.23,88,70,3.8
340,Tabou,CI,1579956797,4.42,-7.35,90.97,25,52,4.5
341,City of San Pedro,PH,1579956797,14.35,121.02,79.0,55,82,4.0
342,Great Falls,US,1579956677,47.5,-111.3,37.99,19,56,4.0
343,Daru,PG,1579956747,-9.08,143.21,77.11,95,94,3.51
344,Otaru,JP,1579956799,43.19,141.0,23.0,100,44,6.89
345,Kumylzhenskaya,RU,1579956800,49.88,42.59,35.01,100,89,3.0
346,Kon Tum,VN,1579956608,14.35,108.0,68.14,100,56,2.21
347,Lagoa,PT,1579956742,39.05,-27.98,59.58,100,88,19.53
348,Ulladulla,AU,1579956716,-35.35,150.47,75.99,51,86,15.64
349,Plettenberg Bay,ZA,1579956802,-34.05,23.37,73.78,0,76,6.82
350,Matagami,CA,1579956803,49.75,-77.63,25.65,100,92,7.14
351,Biak,ID,1579956804,-0.91,122.88,83.75,40,79,5.46
352,Nome,US,1579956741,64.5,-165.41,-9.78,0,72,6.82
353,Pasighat,IN,1579956805,28.07,95.33,58.03,0,70,3.62
354,Ginir,ET,1579956806,7.13,40.7,74.23,73,49,7.45
355,Itoman,JP,1579956760,26.12,127.67,71.01,100,88,5.99
356,Wangaratta,AU,1579956807,-36.37,146.33,69.01,0,64,3.29
357,Samfya,ZM,1579956807,-11.36,29.56,78.75,99,71,2.19
358,Lingao,CN,1579956808,19.91,109.69,71.65,62,88,22.68
359,Mogadishu,SO,1579956809,2.04,45.34,81.34,100,83,24.43
360,Malanje,AO,1579956809,-9.54,16.34,78.35,85,70,5.59
361,Meulaboh,ID,1579956810,4.14,96.13,85.6,11,69,6.29
362,Fort Nelson,CA,1579956810,58.81,-122.7,-3.96,92,98,0.54
363,Shumyachi,RU,1579956811,53.86,32.42,36.75,100,79,17.69
364,Birjand,IR,1579956812,32.87,59.22,46.06,15,47,6.26
365,Nyurba,RU,1579956813,63.28,118.33,-23.1,100,95,6.46
366,Alofi,NU,1579956713,-19.06,-169.92,80.83,100,84,11.65
367,Houma,US,1579956814,29.6,-90.72,41.0,1,100,5.01
368,Katima Mulilo,NA,1579956815,-17.5,24.27,87.6,26,41,8.46
369,Westport,US,1579956585,41.14,-73.36,42.01,90,80,13.87
370,Sao Miguel do Araguaia,BR,1579956816,-13.28,-50.16,72.88,100,98,3.33
371,Sangamner,IN,1579956816,19.57,74.22,85.17,28,22,4.45
372,Honiara,SB,1579956817,-9.43,159.95,73.8,93,88,4.47
373,Ukiah,US,1579956818,39.15,-123.21,55.99,98,97,2.64
374,Izhma,RU,1579956818,65.01,53.91,-8.39,94,98,2.06
375,Camocim,BR,1579956723,-2.9,-40.84,83.64,38,74,6.85
376,Hobyo,SO,1579956755,5.35,48.53,85.86,100,58,23.0
377,Tuatapere,NZ,1579956604,-46.13,167.68,57.99,24,83,2.13
378,Neryungri,RU,1579956821,56.67,124.65,-15.23,83,83,4.23
379,Krasnosel'kup,RU,1579956821,65.7,82.47,0.36,98,97,8.86
380,Wakkanai,JP,1579956822,45.41,141.67,16.21,100,80,26.91
381,Nador,MA,1579956822,35.17,-2.93,66.99,64,46,3.0
382,Port Macquarie,AU,1579956823,-31.43,152.92,75.99,53,92,1.01
383,Ossipee,US,1579956824,43.69,-71.12,36.0,100,93,1.01
384,Wilayat-e Zabul,AF,1579956531,32.25,67.25,33.8,100,100,4.38
385,Dingle,PH,1579956825,11.0,122.67,76.15,94,90,7.31
386,Buin,CL,1579956825,-33.73,-70.75,81.0,12,41,2.48
387,Smithers,CA,1579956826,54.78,-127.17,25.54,100,94,3.53
388,Port Augusta,AU,1579956827,-32.5,137.77,71.01,0,48,1.01
389,Lebu,CL,1579956828,-37.62,-73.65,60.06,0,61,5.64
390,Istok,XK,1579956828,42.78,20.49,50.0,40,48,4.7
391,Ballina,AU,1579956829,-28.87,153.57,73.99,60,97,11.41
392,Russell,US,1579956829,32.35,-85.2,35.01,0,84,4.0
393,Kantang,TH,1579956830,7.41,99.52,77.94,29,67,4.41
394,Grand Gaube,MU,1579956706,-20.01,57.66,82.0,75,88,19.46
395,Songea,TZ,1579956831,-10.68,35.65,78.08,100,81,2.55
396,Fuerte,PH,1579956832,17.54,120.36,73.22,79,91,1.23
397,Korla,CN,1579956737,41.76,86.15,14.79,37,84,2.19
398,Guerrero Negro,MX,1579956776,27.98,-114.06,57.63,82,90,4.99
399,Tahe,CN,1579956834,52.33,124.73,-7.82,64,92,1.01
400,Krasnoarmeysk,RU,1579956835,51.02,45.7,36.0,100,80,10.0
401,Majene,ID,1579956588,-3.54,118.97,79.03,81,83,2.44
402,Crateus,BR,1579956780,-5.18,-40.68,83.64,23,62,4.41
403,Kuala Terengganu,MY,1579956607,5.33,103.14,82.0,5,74,1.99
404,Yangi Marg`ilon,UZ,1579956711,40.43,71.72,45.57,61,58,1.1
405,Villarrobledo,ES,1579956838,39.27,-2.6,44.01,100,95,7.0
406,Liverpool,GB,1579956838,53.41,-2.98,46.0,85,66,3.0
407,Le Moule,GP,1579956839,16.33,-61.35,77.63,28,74,7.99
408,Port Moresby,PG,1579956840,-9.44,147.18,83.88,99,70,1.54
409,Otane,NZ,1579956604,-39.88,176.63,62.01,86,89,2.24
410,Nichinan,JP,1579956841,31.6,131.37,50.0,100,99,8.01
411,Urusha,RU,1579956842,54.05,122.9,-21.06,64,98,2.68
412,Qingdao,CN,1579956836,36.1,120.37,39.99,100,38,1.01
413,Borodino,RU,1579956843,55.91,94.9,30.51,100,77,11.52
414,Chernyshevskiy,RU,1579956844,63.01,112.47,-8.57,100,98,4.21
415,Sao Raimundo Nonato,BR,1579956845,-9.02,-42.7,75.97,100,82,1.14
416,Kushiro,JP,1579956846,42.98,144.37,17.35,64,72,10.85
417,Bratsk,RU,1579956846,56.13,101.61,17.01,88,57,8.01
418,Pacatuba,BR,1579956847,-3.98,-38.62,86.0,46,71,5.99
419,Teya,RU,1579956848,60.38,92.63,24.19,100,97,4.61
420,Dayong,CN,1579956849,25.02,118.29,60.44,100,78,0.94
421,Guiglo,CI,1579956849,6.55,-7.5,93.63,14,24,4.14
422,Seoul,KR,1579956850,37.57,126.98,40.66,95,69,2.42
423,Sawtell,AU,1579956850,-30.38,153.1,75.99,62,92,10.16
424,Price,US,1579956851,39.6,-110.81,28.0,11,91,5.55
425,Fairbanks,US,1579956704,64.84,-147.72,-4.0,100,67,3.83
426,Vostok,RU,1579956852,46.49,135.88,-13.52,49,96,4.85
427,Port-Cartier,CA,1579956853,50.03,-66.87,-2.0,10,84,3.13
428,Ocean City,US,1579956853,39.28,-74.57,51.01,99,93,15.99
429,Aguas Formosas,BR,1579956854,-17.08,-40.94,74.23,100,73,15.17
430,Chumikan,RU,1579956855,54.72,135.31,-12.51,0,74,13.78
431,Milazzo,IT,1579956856,38.22,15.24,64.0,100,61,7.0
432,Kargopol,RU,1579956856,61.51,38.95,25.83,100,89,4.79
433,Kajaani,FI,1579956857,64.17,27.67,20.89,94,86,8.28
434,Santa Vitoria do Palmar,BR,1579956723,-33.52,-53.37,78.1,26,47,9.28
435,Half Moon Bay,US,1579956617,37.46,-122.43,55.0,92,100,2.84
436,Kavieng,PG,1579956859,-2.57,150.8,84.18,6,71,6.8
437,Constitucion,CL,1579956859,-35.33,-72.42,64.8,0,47,1.83
438,Sao Filipe,CV,1579956860,14.9,-24.5,76.03,72,53,21.54
439,Comodoro Rivadavia,AR,1579956695,-45.87,-67.5,60.04,24,75,2.84
440,Misratah,LY,1579956861,32.38,15.09,66.31,45,45,10.47
441,Ko Samui,TH,1579956611,9.54,99.94,80.82,81,74,11.45
442,Kloulklubed,PW,1579956769,7.04,134.26,82.62,2,83,15.68
443,Kjollefjord,NO,1579956863,70.95,27.35,17.17,92,87,17.87
444,Chipata,ZM,1579956864,-13.63,32.65,81.73,29,56,5.3
445,Avanuorri,NO,1579956864,71.0,24.66,20.19,100,82,23.17
446,Sydney,AU,1579956697,-33.87,151.21,78.01,81,85,3.0
447,Shibetsu,JP,1579956867,43.66,145.13,12.09,60,78,11.59
448,Zhigansk,RU,1579956867,66.77,123.37,-37.95,75,94,11.36
449,Pemba,MZ,1579956868,-12.97,40.52,82.89,97,65,3.96
450,Renala Khurd,PK,1579956868,30.88,73.6,65.12,34,30,8.79
451,Hun,LY,1579956869,29.13,15.95,70.12,99,16,6.13
452,Iisalmi,FI,1579956870,63.56,27.19,25.09,98,81,8.7
453,Selma,US,1579956870,36.57,-119.61,52.0,57,100,5.08
454,Necochea,AR,1579956829,-38.55,-58.74,75.99,63,49,7.0
455,Enid,US,1579956872,36.4,-97.88,30.0,92,89,8.7
456,Sault Ste. Marie,CA,1579956873,46.52,-84.33,33.64,100,99,7.02
457,Madang,PG,1579956873,-5.22,145.8,83.52,23,80,7.49
458,Primero de Enero,CU,1579956874,21.95,-78.43,63.93,4,88,1.01
459,Tigil,RU,1579956875,57.8,158.67,14.47,100,91,10.74
460,Maputo,MZ,1579956642,-25.97,32.59,87.01,57,62,5.01
461,Luancheng,CN,1579956876,37.88,114.65,35.96,0,53,2.84
462,Urengoy,RU,1579956876,65.97,78.37,-0.49,95,96,7.96
463,Tonantins,BR,1579956877,-2.87,-67.8,72.77,100,97,1.9
464,Lagos,NG,1579956878,6.58,3.75,87.82,100,16,6.46
465,Mana,GF,1579956878,5.66,-53.78,77.04,60,91,1.54
466,Brae,GB,1579956879,60.4,-1.35,47.17,100,84,35.32
467,Rio Negrinho,BR,1579956879,-26.25,-49.52,81.0,47,92,8.01
468,Maceio,BR,1579956670,-9.67,-35.74,81.45,47,76,8.9
469,Pitkyaranta,RU,1579956881,61.57,31.48,30.31,100,74,18.61
470,Severodvinsk,RU,1579956881,64.56,39.83,9.75,100,95,4.25
471,Nicoya,CR,1579956882,10.15,-85.45,66.99,0,85,15.99
472,Visnes,NO,1579956882,59.36,5.22,45.0,100,95,14.0
473,Minzhu,CN,1579956698,43.73,127.34,5.29,47,78,1.74
474,Phuthaditjhaba,ZA,1579956884,-28.52,28.82,80.19,63,29,13.62
475,Ellensburg,US,1579956884,47.0,-120.55,37.99,100,99,1.01
476,Manali,IN,1579956885,13.17,80.27,80.01,100,73,5.01
477,Poum,NC,1579956885,-20.23,164.02,79.66,62,80,17.56
478,Ascension,US,1579956798,30.22,-90.9,42.01,1,100,3.4
479,Voh,NC,1579956887,-20.97,164.7,78.33,41,82,13.91
480,Beruwala,LK,1579956888,6.48,79.98,82.71,100,74,11.27
481,Visby,SE,1579956888,57.64,18.3,45.0,34,10,3.0
482,Bowen,AU,1579956890,-20.02,148.23,80.01,100,92,7.52
483,Henties Bay,NA,1579956890,-22.12,14.28,70.0,0,83,5.99
484,Ayan,RU,1579956891,56.45,138.17,-21.82,0,73,9.19
485,Kemin,KG,1579956891,42.78,75.69,22.28,88,98,0.89
486,Bandarbeyla,SO,1579956716,9.49,50.81,78.51,68,85,17.31
487,Boden,SE,1579956893,65.83,21.69,16.79,3,85,2.17
488,Phangnga,TH,1579956893,8.45,98.53,74.8,88,73,2.8
489,Staryy Nadym,RU,1579956894,65.61,72.68,1.42,85,96,3.53
490,Kodinsk,RU,1579956894,58.69,99.18,26.2,100,90,7.27
491,Sao Joao do Piaui,BR,1579956895,-8.36,-42.25,82.53,89,69,3.33
492,Terenos,BR,1579956644,-20.44,-54.86,78.98,0,67,3.04
493,Mattru,SL,1579956896,7.62,-11.83,93.47,0,32,4.59
494,Sivas,TR,1579956897,39.79,37.0,18.82,2,84,4.0
495,Mahajanga,MG,1579956897,-15.72,46.32,84.42,54,73,9.22
496,Zeya,RU,1579956898,53.75,127.27,-21.37,100,99,5.28
497,Tautira,PF,1579956899,-17.73,-149.15,78.01,5,78,11.63
498,Gurupi,BR,1579956899,-11.73,-49.07,77.5,100,87,3.78
499,Soyo,AO,1579956900,-6.13,12.37,91.4,20,66,6.93
500,Mukhen,RU,1579956902,48.1,136.1,-8.77,88,92,6.62
501,Aksu,CN,1579956902,41.12,80.26,27.0,0,68,6.13
502,Vaitape,PF,1579956903,-16.52,-151.75,81.63,17,76,12.08
503,Isabela,PH,1579956903,6.71,121.97,75.16,55,89,3.09
504,Port Hardy,CA,1579956713,50.7,-127.42,40.64,100,97,3.94
505,Inta,RU,1579956644,66.03,60.17,-1.66,84,96,6.49
506,Bara,NG,1579956905,10.37,10.73,85.24,12,12,12.57
507,Isiro,CD,1579956906,2.77,27.62,94.42,83,14,5.37
508,Bima,ID,1579956906,-8.47,118.72,74.84,74,92,2.06
509,Teguldet,RU,1579956907,57.31,88.17,30.34,100,91,16.67
510,Tranas,SE,1579956908,58.04,14.98,39.99,42,85,4.0
511,Clyde River,CA,1579956737,70.47,-68.59,-17.23,44,69,4.72
512,Bud,US,1579956909,39.45,-86.18,35.01,100,95,5.99
513,Kirovskiy,RU,1579956909,45.09,133.51,-5.66,11,81,3.22
514,Mikropolis,GR,1579956910,41.19,23.82,54.0,0,53,1.01
515,Torit,SS,1579956911,4.41,32.57,97.16,82,14,6.6
516,Shimoda,JP,1579956911,34.67,138.95,48.0,100,66,1.01
517,Guasdualito,VE,1579956912,7.24,-70.73,79.52,99,59,5.57
518,Murdochville,CA,1579956913,48.96,-65.5,10.26,36,60,3.62
519,Alcantara,BR,1579956914,-2.41,-44.41,84.72,27,73,10.65
520,Cooma,AU,1579956914,-36.23,149.13,56.35,0,54,3.49
521,Lakatoro,VU,1579956915,-16.1,167.42,80.94,1,75,11.92
522,Nishihara,JP,1579956915,26.18,127.76,71.01,100,88,5.99
523,Prince Rupert,CA,1579956916,54.32,-130.32,43.54,86,86,10.87
524,'Ewa Beach,US,1579956917,21.32,-158.01,69.01,3,77,3.58
525,Klyuchi,RU,1579956917,52.27,79.17,20.8,100,86,13.42
526,Liangxiang,CN,1579956918,39.73,116.14,36.0,0,55,2.73
527,Rupert,US,1579956918,42.62,-113.68,34.0,53,96,3.0
528,Zhezkazgan,KZ,1579956919,47.8,67.71,8.58,15,91,10.13
529,Sanming,CN,1579956920,26.25,117.62,52.09,100,96,5.73
530,Severnyy,RU,1579956920,50.68,36.55,34.2,100,93,14.12
531,Huayucachi,PE,1579956921,-12.13,-75.23,41.54,100,94,3.51
532,Mogzon,RU,1579956922,51.74,111.96,6.89,68,82,3.31
533,Khalkhal,IR,1579956923,37.62,48.53,19.92,92,90,3.65
534,Esso,RU,1579956924,55.93,158.7,12.31,100,92,3.2
535,Awjilah,LY,1579956924,29.11,21.29,62.74,63,35,9.44
536,Sirnak,TR,1579956925,37.52,42.46,39.65,0,40,1.03
537,Waiuku,NZ,1579956926,-37.25,174.75,69.01,69,88,5.99
538,Bonavista,CA,1579956926,48.65,-53.11,17.01,25,78,14.0
539,Port Blair,IN,1579956720,11.67,92.75,79.47,97,70,17.0
540,Carahue,CL,1579956927,-38.7,-73.17,61.29,17,61,2.82
541,Lubango,AO,1579956666,-14.92,13.49,75.04,80,57,7.83
542,Saint-Louis,SN,1579956929,16.33,-15.0,97.23,92,10,12.01
543,Haines Junction,CA,1579956930,60.75,-137.51,-14.82,99,99,3.83
544,Burley,US,1579956731,42.54,-113.79,33.01,48,96,3.0
545,Austin,US,1579956921,30.27,-97.74,48.99,1,61,6.93
546,Vyazemskiy,RU,1579956932,47.54,134.75,-7.47,0,90,3.67
547,Coahuayana Viejo,MX,1579956932,18.73,-103.68,66.92,50,84,4.65
548,Lamu,KE,1579956933,-2.27,40.9,81.77,100,83,15.12
549,Mizan Teferi,ET,1579956933,6.98,35.58,88.81,90,26,5.35
550,Mombetsu,JP,1579956934,44.35,143.35,16.83,100,66,36.28
551,Cayenne,GF,1579956935,4.93,-52.33,79.7,96,84,3.36
552,Puerto Colombia,CO,1579956935,10.99,-74.95,77.88,26,83,18.3
553,Oksfjord,NO,1579956936,70.24,22.35,16.0,93,84,8.01
554,Labuhan,ID,1579956936,-6.88,112.21,78.73,97,80,4.25
555,Patiya,BD,1579956937,22.29,91.98,60.78,0,63,3.49
556,Belem,BR,1579956762,-1.46,-48.5,80.11,89,90,4.07
557,Gilgit,PK,1579956938,35.92,74.31,14.11,75,76,3.33
558,Yinzhu,CN,1579956939,35.88,119.98,39.99,100,38,1.01
559,Impfondo,CG,1579956939,1.64,18.07,99.66,98,8,5.57
560,Kasongo-Lunda,CD,1579956940,-6.47,16.82,73.98,100,89,1.16
561,Goderich,CA,1579956702,43.75,-81.72,39.0,100,94,1.99
562,Olavarria,AR,1579956941,-36.89,-60.32,78.01,6,71,1.99
563,Puerto Escondido,MX,1579956942,15.85,-97.07,65.16,0,83,4.36
564,Paamiut,GL,1579956763,61.99,-49.67,16.47,97,58,12.01
565,Zhanaozen,KZ,1579956944,43.3,52.8,33.62,58,57,21.3
566,Polunochnoye,RU,1579956944,60.87,60.42,1.4,66,91,2.37
567,Novato,US,1579956945,38.11,-122.57,55.0,90,100,4.7
568,Challans,FR,1579956945,46.84,-1.87,50.0,8,91,1.01
569,Frontera,MX,1579956946,26.93,-101.45,55.15,100,79,1.28
570,Tocopilla,CL,1579956947,-22.09,-70.2,63.39,100,88,0.96
571,Fukuecho,JP,1579956712,32.69,128.84,52.56,100,88,24.36
